,inspection_id,dba_name,license_,facility_type,inspection_date,latitude,longitude,year,category
163243,1360771,GUSI'S PIZZA,0.0,restaurant,2013-09-09,41.702518087781016,-87.55974504990618,2013,Restaurant
164422,1370166,LA MICHOACANA,0.0,restaurant,2013-11-04,41.81416061869724,-87.69453060572629,2013,Restaurant
164669,1151592,TAQUERIA CHILE BRAVO,0.0,restaurant,2013-09-03,41.85133736450854,-87.6783945206964,2013,Restaurant
168304,1146459,ITALIAN PIZZA KITCHEN,0.0,restaurant,2013-07-03,41.90734970710327,-87.64926041452054,2013,Restaurant
172764,1188496,UNLICENSED,0.0,restaurant,2013-01-29,42.01941677429189,-87.68449834218502,2013,Restaurant
173912,1321538,Birrieria Aquascalientes,0.0,restaurant,2013-01-24,41.93864158190054,-87.7528234779786,2013,Restaurant
175470,1138820,LA SALLE POWER CO.,0.0,restaurant,2013-02-07,41.890841457197695,-87.63270627765388,2013,Restaurant
177888,1202458,ESSENTIAL HEALTHY LIVING INC.,0.0,restaurant,2012-10-10,41.80772734648144,-87.72636656547475,2013,Restaurant
180581,1227591,MONTOYA'S ICE CREAM,0.0,restaurant,2012-09-25,41.78624779326939,-87.69654975568328,2013,Restaurant
183933,1229479,ALVARO JIMENEZ,0.0,restaurant,2012-06-07,41.81068114659683,-87.6648796277618,2013,Restaurant
184352,1088227,KENNY,0.0,restaurant,2012-07-18,41.73869100380115,-87.58510330731285,2013,Restaurant
186558,1150466,THE SALVATION ARMY/KROC CENTER,0.0,restaurant,2012-06-13,41.67776039309511,-87.65366213755682,2013,Restaurant
187079,1277227,Herbalife,0.0,restaurant,2012-06-15,41.93117103726046,-87.78143874968808,2013,Restaurant
192111,1214351,SALVATION ARMY ARC CLYBOURN,0.0,restaurant,2012-04-24,41.9228752360221,-87.66636681694519,2013,Restaurant
195110,670575,RESPECT FOR LIFE,0.0,restaurant,2012-02-16,41.75055282036361,-87.64267369127873,2013,Restaurant
3926,1286054,SOUL GOURMET,0.0,restaurant,2012-05-04,41.7798631678725,-87.6445278756232,2013,Restaurant
186805,1229587,NORMA'S MINI STORE,0.0,grocery store,2012-06-13,41.85386830200632,-87.67821915483191,2013,Grocery Store
160526,1360997,"VINCES PIZZERIA & TAQUERIA, INC",0.0,restaurant,2013-09-17,41.99798866563551,-87.66883580355905,2013,Restaurant
3196,1376180,"IRVING PARK KKC, INC",2304021.0,restaurant,2013-12-26,41.95322815649395,-87.77195584555682,2013,Restaurant
3197,1391349,CORNER SHOP INC.,1969213.0,restaurant,2013-12-24,41.96811502066345,-87.7295540103715,2013,Restaurant
3198,1391347,"1st HUNAN SPRING, INC",2303648.0,restaurant,2013-12-23,41.97704126868173,-87.75442838864393,2013,Restaurant
3200,1383325,Stans Donuts,2294414.0,restaurant,2013-12-20,41.90999519941597,-87.67759908709834,2013,Restaurant
3202,1376138,SCOOTER'S FROZEN CUSTARD LLC,1329995.0,restaurant,2013-12-19,41.93977513614047,-87.67097530549955,2013,Restaurant
3203,1151899,BISTRO 180,2298719.0,restaurant,2013-12-18,41.85787654017807,-87.6678994187193,2013,Restaurant
3204,1115191,SUBWAY,1948193.0,restaurant,2013-12-18,41.876797440785374,-87.63325591022408,2013,Restaurant
3206,1199258,RACINE PLUMBING,1383544.0,restaurant,2013-12-16,41.9298423844424,-87.65512664177405,2013,Restaurant
3210,1228355,DINO'S,2184372.0,restaurant,2013-12-09,41.801142796814446,-87.6722882986953,2013,Restaurant
3212,1372302,HOP HAUS,1047059.0,restaurant,2013-12-06,41.89378277737744,-87.6357793413821,2013,Restaurant
3216,1391298,GOLD COAST PIZZA COMPANY,2172610.0,restaurant,2013-12-04,41.903823842447046,-87.62916036215749,2013,Restaurant
3218,1345708,THE SILVERSMITH HOTEL & SUITES,2079886.0,restaurant,2013-12-03,41.88181876616734,-87.62635317290135,2013,Restaurant
3220,1375783,BOSS BAR,2185066.0,restaurant,2013-12-03,41.88990487943944,-87.63122454993453,2013,Restaurant
3222,1345702,PRET A MANGER,2068718.0,restaurant,2013-12-02,41.88323717511991,-87.63255557700788,2013,Restaurant
3225,1375661,PLAZA CAFE,2220619.0,restaurant,2013-11-26,41.8819664487557,-87.64127582547708,2013,Restaurant
3226,1319928,STARBUCKS COFFEE #226,23029.0,restaurant,2013-11-22,41.79965378379031,-87.58904895260531,2013,Restaurant
3228,1324799,STARBUCKS,2083697.0,restaurant,2013-11-20,41.87856015362371,-87.63652387205532,2013,Restaurant
3229,1106992,"AROUND THE WORLD - CHICAGO,INC",2157699.0,restaurant,2013-11-20,42.00014772933609,-87.66084730639686,2013,Restaurant
3231,1372282,Rockit Bar & Grill,1470960.0,restaurant,2013-11-19,41.89016136574744,-87.62884924184334,2013,Restaurant
3235,1367399,GFC,1493459.0,restaurant,2013-11-14,41.90236016276136,-87.7557165080082,2013,Restaurant
3236,1372253,UNDERGROUND WONDER BAR,2147105.0,restaurant,2013-11-07,41.8952317861976,-87.63135889968055,2013,Restaurant
3237,1375261,NEW CHINA BUFFET ENTERPRISES,2032302.0,restaurant,2013-11-07,41.97457747458364,-87.81001297892426,2013,Restaurant
3238,1092711,JERSEY MIKE'S SUBS,2196815.0,restaurant,2013-11-06,41.93918784978456,-87.64451786379803,2013,Restaurant
3239,1391245,MOXIE,21889.0,restaurant,2013-11-06,41.946248889070304,-87.65557735244559,2013,Restaurant
3242,1099264,"ROSCOE-DAMEN, CORP.",2293828.0,restaurant,2013-11-04,41.94332513800031,-87.67851443293753,2013,Restaurant
3243,1370064,AMERICAN AIRLINES,2284295.0,restaurant,2013-10-29,42.008536400868735,-87.91442843927047,2013,Restaurant
3244,1370085,JAMBA JUICE,1514155.0,restaurant,2013-10-30,41.88199433820508,-87.6397586848809,2013,Restaurant
3246,1370029,HOST INTERNATIONAL B05,34203.0,restaurant,2013-10-29,42.008536400868735,-87.91442843927047,2013,Restaurant
3249,1387212,NELLIES,1621190.0,restaurant,2013-10-23,41.90310359416673,-87.68934332266758,2013,Restaurant
3250,1369869,LONE WOLF,2245379.0,restaurant,2013-10-22,41.884511813325,-87.64776051854923,2013,Restaurant
3251,1345593,COSTA ALEGRE,1494091.0,restaurant,2013-10-22,41.93195637540899,-87.71194660188806,2013,Restaurant
3252,1381209,JAMBA JUICE   #185,1514154.0,restaurant,2013-10-22,41.9328286998427,-87.64508035101484,2013,Restaurant
3253,1369861,JOHNNY O' HAGAN'S,2278258.0,restaurant,2013-10-22,41.94345975463671,-87.65369309468966,2013,Restaurant
3255,1345595,FIESTA GRILL,2009036.0,restaurant,2013-10-22,41.91851166240564,-87.69039442990709,2013,Restaurant
3256,1319838,TAJ MAHAL,1932427.0,restaurant,2013-10-21,41.869401584495904,-87.66467525709314,2013,Restaurant
3259,1106923,I MONELLI TRATTORIA PIZZERIA,2152070.0,restaurant,2013-10-18,41.972911618595504,-87.68890203932801,2013,Restaurant
3260,1369773,HAROLD'S CHICKEN,2232230.0,restaurant,2013-10-17,41.75103563717988,-87.61339828673648,2013,Restaurant
3261,1369763,OSTERIA DE PIZZA METRO,2129491.0,restaurant,2013-10-17,41.93441430311496,-87.64602064547245,2013,Restaurant
3263,1296639,A TAVOLA,45044.0,restaurant,2013-10-16,41.89594582031756,-87.68145004376318,2013,Restaurant
3264,1369720,ELEPHANT & CASTLE,1741988.0,restaurant,2013-10-16,41.88543167061009,-87.626119285512,2013,Restaurant
3265,1296636,BANNER PIZZERIA,2074608.0,restaurant,2013-10-16,41.702845543419045,-87.53584559419713,2013,Restaurant
3267,1228237,HARVEY'S,2288972.0,restaurant,2013-10-15,41.83796853361551,-87.6437022288612,2013,Restaurant
3270,1369604,QUE RICO,34825.0,restaurant,2013-10-10,41.932964216671685,-87.66372953019929,2013,Restaurant
3273,1369592,SMALL WORLD INN,2013453.0,restaurant,2013-10-10,41.70264920626306,-87.54270569807852,2013,Restaurant
3274,1305439,MC DONALD'S,1678527.0,restaurant,2013-10-09,41.789329323265385,-87.74164564419637,2013,Restaurant
3275,1174599,MING CHOY,1355122.0,restaurant,2013-10-08,41.884299993032656,-87.64712646127494,2013,Restaurant
3276,1072592,MEXIQUE,1802986.0,restaurant,2013-10-08,41.89598204592076,-87.66604606950455,2013,Restaurant
3280,1369507,JIMMY,1884675.0,restaurant,2013-10-07,41.89291766772067,-87.62555144373697,2013,Restaurant
3281,1369500,AVENUE TAVERN,1242927.0,restaurant,2013-10-07,41.935358121993126,-87.64438916677103,2013,Restaurant
3282,1367320,BOOM FRIED RICE,6698.0,restaurant,2013-10-07,41.87537501581776,-87.72563428263534,2013,Restaurant
3284,1369451,POMPEI,1843710.0,restaurant,2013-10-04,41.892678418310624,-87.62211888192721,2013,Restaurant
3285,1236020,URU-SWATI,1695019.0,restaurant,2013-10-03,41.99751643797393,-87.69592211008248,2013,Restaurant
3287,1099222,SHAWARMA,1997591.0,restaurant,2013-10-03,41.98207583455508,-87.6931174468912,2013,Restaurant
3288,1369433,COOPER'S,1301621.0,restaurant,2013-10-03,41.93992587298262,-87.66025188109599,2013,Restaurant
3291,1236015,CHINESE LANTERN,13734.0,restaurant,2013-10-01,41.97339650923979,-87.65679874855937,2013,Restaurant
3294,1174592,THE HAPPY CRAB,2269814.0,restaurant,2013-10-01,41.87804963107116,-87.64774147823563,2013,Restaurant
3295,1367305,TASTE BUD BANQUET HALL & RESTAURANT,2003571.0,restaurant,2013-10-01,41.88070919232791,-87.73643717633821,2013,Restaurant
3297,1369328,MATILDA,44826.0,restaurant,2013-09-30,41.938135400887774,-87.65389910021774,2013,Restaurant
3299,1151664,MR. ELOTE,1964624.0,restaurant,2013-09-27,41.75466012439374,-87.74138475860521,2013,Restaurant
3301,1369400,M KAFE,2114128.0,restaurant,2013-09-27,41.990135796294425,-87.65977097752456,2013,Restaurant
3305,1369238,ORGATEA & CAFE,2141323.0,restaurant,2013-09-25,41.98289768257029,-87.71380017511221,2013,Restaurant
3307,1369216,NEW HONG KONG CHEF INC.,1332327.0,restaurant,2013-09-25,41.95701305646824,-87.65476211165321,2013,Restaurant
3311,1361176,DADDY COOL'S,2262425.0,restaurant,2013-09-24,41.9207341319564,-87.6940410939342,2013,Restaurant
3313,1305432,LOS AMANTES,67265.0,restaurant,2013-09-23,41.80753274427624,-87.74290644979058,2013,Restaurant
3314,1367290,VERA'S,2027307.0,restaurant,2013-09-23,41.88049855085285,-87.73567205524651,2013,Restaurant
3315,1361151,SPORTSERVICE SOLDIER FIELD,1354323.0,restaurant,2013-09-23,41.862628294037634,-87.61503109411332,2013,Restaurant
3316,1361140,DONA TORTA,1354422.0,restaurant,2013-09-20,41.937758881866735,-87.66844527293962,2013,Restaurant
3317,1343465,TROPICAL TASTE,1717419.0,restaurant,2013-09-20,41.91017839803487,-87.7105055604854,2013,Restaurant
3318,1361125,SWEET TAMARIND THAI CUISINE,1893203.0,restaurant,2013-09-20,41.93999961847732,-87.65546972706031,2013,Restaurant
3319,1361113,RUSTIK,1846981.0,restaurant,2013-09-20,41.92706664376851,-87.69732984409596,2013,Restaurant
3320,1361082,HAROLD'S CHICKEN SHACK,20687.0,restaurant,2013-09-19,41.77954599567365,-87.65119025579276,2013,Restaurant
3322,1365262,"SODEXHO AMERICA, LLC",1678900.0,restaurant,2013-09-16,41.895692401410514,-87.62014286048188,2013,Restaurant
3323,1360956,DREAM DINNERS,1845013.0,restaurant,2013-09-13,41.93964099167092,-87.68180523903925,2013,Restaurant
3324,1324676,"Arby's /SBA,LTD",1892053.0,restaurant,2013-09-13,41.8820882268538,-87.63368502504036,2013,Restaurant
3325,1228168,HAN 202,1959609.0,restaurant,2013-09-13,41.83799360033159,-87.64164283333236,2013,Restaurant
3326,1146520,BISMARCK ENTERPRISES/UNITED,37979.0,restaurant,2013-09-11,41.88124145680335,-87.67428253395332,2013,Restaurant
3327,1329505,JAVA N MUG,1883753.0,restaurant,2013-09-10,41.98293736783729,-87.71072602471929,2013,Restaurant
3328,1139120,ED DEBEVIC'S,1596021.0,restaurant,2013-09-10,41.89365847761819,-87.63427038140614,2013,Restaurant
3330,1360808,HOMEPLATE DEUCES & THE DIAMOND CLUB,2079020.0,restaurant,2013-09-10,41.94599352274732,-87.65537113546681,2013,Restaurant
3334,1151610,JR'S BURRITOS SHACK,2120267.0,restaurant,2013-09-09,41.74128282135388,-87.71382961609703,2013,Restaurant
3335,1151609,MAGIC SNACK SHOP,1616496.0,restaurant,2013-09-09,41.6913989363127,-87.70472545403344,2013,Restaurant
3336,1360744,CORNELIA'S RESTAURANT,21439.0,restaurant,2013-09-06,41.94555069309664,-87.6490499606871,2013,Restaurant
3337,920384,SUNLIGHT CAFE,1594913.0,restaurant,2013-09-06,41.85272678552472,-87.63311319020137,2013,Restaurant
3338,1324657,CHICAGO EATS AND TREATS,2089432.0,restaurant,2013-09-05,41.87856015362371,-87.63652387205532,2013,Restaurant
3339,1199059,BATTER & BERRIES LLC,2146584.0,restaurant,2013-09-05,41.93166320927571,-87.65766949014623,2013,Restaurant
3340,1360700,EGGSPERIENCE,2283437.0,restaurant,2013-09-05,41.880858755750936,-87.64747880040215,2013,Restaurant
3342,1235959,NORTH BUENA MARKET,2271171.0,restaurant,2013-09-05,41.95848356330247,-87.65321448916944,2013,Restaurant
3343,1199061,ZELLA,30543.0,restaurant,2013-09-04,41.91732375905186,-87.65824745106991,2013,Restaurant
3344,1345511,"BLOCK 37 CTA DONUTS INC.,",2284168.0,restaurant,2013-09-04,41.88342263701488,-87.62802165207536,2013,Restaurant
3345,1360664,WENDY'S #000981,6780.0,restaurant,2013-09-04,41.979892458487015,-87.80712701444871,2013,Restaurant
3346,1360659,MARINERO BAR AND GRILL,1797882.0,restaurant,2013-09-03,41.954068125180704,-87.70147782880944,2013,Restaurant
3347,1360645,CHURCH'S CHICKEN # 970,1273267.0,restaurant,2013-09-03,41.8806769908738,-87.72581612691941,2013,Restaurant
3348,1360635,SOM MASHA ALLAH  GRILL,2179374.0,restaurant,2013-09-03,41.996149190826735,-87.67583275149421,2013,Restaurant
3351,1305383,MIDWAY LOUNGE,2086.0,restaurant,2013-08-29,41.77869630305849,-87.728713965789,2013,Restaurant
3352,1228129,CHINA WOK,2013324.0,restaurant,2013-08-29,41.83050041795062,-87.67522140471041,2013,Restaurant
3353,1305381,PACO'S HOTDOGS AND ICE CREAM,2133685.0,restaurant,2013-08-29,41.79959745968949,-87.70358495558017,2013,Restaurant
3354,1174573,DA LOBSTA,2283644.0,restaurant,2013-08-29,41.884187507127805,-87.64111966683218,2013,Restaurant
3356,1360983,SOCCA,13009.0,restaurant,2013-08-27,41.94186145960563,-87.65204754270617,2013,Restaurant
3357,1296546,"NEW CHINA EXPRESS, INC",49671.0,restaurant,2013-08-27,41.765990001140594,-87.57378733665412,2013,Restaurant
3358,1199037,CLYBAR,1491261.0,restaurant,2013-08-23,41.925671303974354,-87.66984156875924,2013,Restaurant
3359,1092574,GALWAY ARMS,49336.0,restaurant,2013-08-23,41.92660482392973,-87.64125865836216,2013,Restaurant
3361,1139095,BLACKFINN AMERIPUB,2196436.0,restaurant,2013-08-23,41.8891091281777,-87.6305406286297,2013,Restaurant
3362,1305377,GORDITAS SALAZAR,2083818.0,restaurant,2013-08-22,41.81986164387176,-87.7042861154633,2013,Restaurant
3363,1151565,FIESTA DEL SOL RESTAURANTE,2049066.0,restaurant,2013-08-22,41.850428003029705,-87.67115535322796,2013,Restaurant
3364,1072507,79TH STREET BARBEQUE,2119891.0,restaurant,2013-08-22,41.75026159818169,-87.66234576167015,2013,Restaurant
3366,1360401,JAFFA BAKERY,1820841.0,restaurant,2013-08-20,41.88199433820508,-87.6397586848809,2013,Restaurant
3367,1360382,HUTCH,2270100.0,restaurant,2013-08-20,41.94186145960563,-87.65204754270617,2013,Restaurant
3368,1228107,EVERGREEN RESTAURANT,2185077.0,restaurant,2013-08-19,41.848804836394464,-87.63177773474666,2013,Restaurant
3370,1324621,BOSTON BLACKIES OF RIVERSIDE,1124342.0,restaurant,2013-08-16,41.8799233059124,-87.63880253891776,2013,Restaurant
3371,1365241,TRADER VIC'S,1873418.0,restaurant,2013-08-16,41.90146341490292,-87.62848137148605,2013,Restaurant
3372,1324619,Skadden Arps,1975690.0,restaurant,2013-08-16,41.88461561705127,-87.63668235780031,2013,Restaurant
3373,1329457,EURO CAPPUCCINO INC,84508.0,restaurant,2013-08-15,41.93840192256397,-87.77129393115776,2013,Restaurant
3375,1345456,GRANDMA GEBHARDS,9616.0,restaurant,2013-08-15,41.883100479248256,-87.6301472292721,2013,Restaurant
3376,1151548,EFEBINA'S CAFE,1998619.0,restaurant,2013-08-15,41.85870915813739,-87.6606040076504,2013,Restaurant
3377,1360250,SHUI WAH CHINESE CUISINE,75453.0,restaurant,2013-08-14,41.8532702235994,-87.63424788717859,2013,Restaurant
3379,1139076,"14 W. HUBBARD, LLC",2109816.0,restaurant,2013-08-13,41.89016640039207,-87.62854579369515,2013,Restaurant
3380,1345447,JASON'S DELI,2129572.0,restaurant,2013-08-13,41.88563517079778,-87.62934689882326,2013,Restaurant
3384,1296502,L & G FAMILY RESTAURANT INC,60020.0,restaurant,2013-08-06,41.70630822902978,-87.5594979563291,2013,Restaurant
3385,1151507,SBARRO'S PIZZERIA,1903424.0,restaurant,2013-08-06,41.75466012439374,-87.74138475860521,2013,Restaurant
3386,1354083,"INTELLIGENTSIA COFFEE & TEA, INC.",44721.0,restaurant,2013-08-06,41.938435180550734,-87.64419841711218,2013,Restaurant
3387,1354078,HERMANS HIDEAWAY,2032081.0,restaurant,2013-08-06,41.94142629278533,-87.69079930080058,2013,Restaurant
3388,1343394,LUPES TACOS BUFFET,2172465.0,restaurant,2013-08-06,41.85186753761836,-87.70593359696741,2013,Restaurant
3391,1354059,YSABEL'S FILIPINO CUISINE,2013419.0,restaurant,2013-08-05,41.953485015058135,-87.750248227467,2013,Restaurant
3392,1354054,"MI GENTE, INC.",1579353.0,restaurant,2013-08-05,41.85161472524953,-87.70875738862884,2013,Restaurant
3393,1110357,SHERATON CHICAGO HOTEL/TOWER,23333.0,restaurant,2013-08-05,41.88945828010943,-87.62036837642913,2013,Restaurant
3394,1345426,STARBUCKS COFFEE #16309,2147567.0,restaurant,2013-08-02,41.87948932869769,-87.6244981249339,2013,Restaurant
3396,1305367,BIRRIERIA TEPATITLAN,2277773.0,restaurant,2013-08-02,41.800721300516216,-87.70307308068261,2013,Restaurant
3397,1296500,PIZZA HUT,43681.0,restaurant,2013-08-01,41.73369956100708,-87.58498771589495,2013,Restaurant
3401,1353987,ALEGRE RESTAURANT & BAR,16501.0,restaurant,2013-08-01,41.92414989457289,-87.76136988672664,2013,Restaurant
3403,1353976,MCGUIGANS,2246714.0,restaurant,2013-07-31,41.94329510166934,-87.66890904902036,2013,Restaurant
3404,1365210,HAAGEN DAZS CAFE,1119100.0,restaurant,2013-07-31,41.89224916340012,-87.60951804879336,2013,Restaurant
3405,1361267,PINT,1383807.0,restaurant,2013-07-30,41.90970816907281,-87.67619367559715,2013,Restaurant
3409,1353923,LA TAQUERIA LA PUERTA CORP,2183796.0,restaurant,2013-07-30,41.79066695339908,-87.72323574527378,2013,Restaurant
3410,1198982,AMERICA'S DOG,1697404.0,restaurant,2013-07-29,41.92362446590992,-87.64642729029046,2013,Restaurant
3412,1353897,BEST STEAKHOUSE,7082.0,restaurant,2013-07-29,41.96527014438852,-87.6575542920256,2013,Restaurant
3414,1353860,6978 SOUL FOOD,1953650.0,restaurant,2013-07-25,41.90906215302536,-87.80024470792762,2013,Restaurant
3415,1329411,NEW WAVES INC,61212.0,restaurant,2013-07-23,41.945644781746616,-87.778210263651,2013,Restaurant
3420,1324561,FRESHII,1959069.0,restaurant,2013-07-19,41.880768960917806,-87.63387497409452,2013,Restaurant
3421,1361230,HIGH DIVE,2008835.0,restaurant,2013-07-19,41.89603792760617,-87.67606493977472,2013,Restaurant
3422,1353749,STAROPOLSKA RESTAURANT,36337.0,restaurant,2013-07-18,41.93856565739178,-87.75855584047643,2013,Restaurant
3423,1151450,"PLAY A DEL MAR, INC",2113999.0,restaurant,2013-07-18,41.8455207093247,-87.69538496946204,2013,Restaurant
3424,1329402,HAE WOON DAE RESTAURANT,71540.0,restaurant,2013-07-18,41.99517710134168,-87.69970469303253,2013,Restaurant
3425,1353739,"SODEXO AMERICA, LLC",2271476.0,restaurant,2013-07-18,41.8806992461244,-87.63972502663867,2013,Restaurant
3426,1353732,ANTICA PIZZERIA,2256432.0,restaurant,2013-07-18,41.98511286358866,-87.66895925792126,2013,Restaurant
3427,1353800,LOVING HUT,1248503.0,restaurant,2013-07-18,41.987464806694895,-87.6603343733537,2013,Restaurant
3429,1198961,CARIBOU COFFEE,52556.0,restaurant,2013-07-17,41.92700809602405,-87.64117431057976,2013,Restaurant
3431,1353677,BOMBAY SPICE GRILL,2232110.0,restaurant,2013-07-16,41.8924589403376,-87.62211240129513,2013,Restaurant
3435,1174560,BANH MI & CO.,2271170.0,restaurant,2013-07-12,41.876949124597786,-87.63415934265407,2013,Restaurant
3436,1353548,SULTAN'S MARKET,2031862.0,restaurant,2013-07-09,41.91033293012805,-87.67971585451996,2013,Restaurant
3437,1353637,EL NORTE,2109671.0,restaurant,2013-07-09,41.9835780708531,-87.66022780493213,2013,Restaurant
3440,1155121,HONEY'S CHICKEN & SEAFOOD INCORPORATED,2033070.0,restaurant,2013-07-08,41.76561797259401,-87.56665272988461,2013,Restaurant
3442,1329382,BRYN MAWR CAFE INC,2125031.0,restaurant,2013-07-08,41.9829475216694,-87.71000937031987,2013,Restaurant
3443,1329378,BIJE'S,46328.0,restaurant,2013-07-05,41.95248836107066,-87.81440271000294,2013,Restaurant
3444,1343364,SMOOCHES,2269674.0,restaurant,2013-07-05,41.86985543688609,-87.71382219274976,2013,Restaurant
3446,1353481,MERGUEZ,2183826.0,restaurant,2013-07-03,41.967965811139145,-87.76065245915902,2013,Restaurant
3447,1092488,LAS FUENTES,12575.0,restaurant,2013-07-03,41.9290354100918,-87.64903392789199,2013,Restaurant
3449,1353453,MARIO'S MINI MART,1841629.0,restaurant,2013-07-02,41.651943907653454,-87.54577706930137,2013,Restaurant
3450,1296452,HAROLD'S CHICKEN #5,1679061.0,restaurant,2013-07-02,41.76638853739546,-87.57214812652433,2013,Restaurant
3451,1114898,SOFI LLC,2245298.0,restaurant,2013-07-02,41.87423457984985,-87.62935644330602,2013,Restaurant
3452,1166350,TWO WAY DINER,1221918.0,restaurant,2013-07-01,41.959792501515146,-87.72783183969106,2013,Restaurant
3453,1353414,5 Boroughs Pizza Company,1986511.0,restaurant,2013-07-01,41.91057807884066,-87.6384281113664,2013,Restaurant
3454,1198943,D'S,2196346.0,restaurant,2013-06-28,41.92659311588866,-87.64865397223507,2013,Restaurant
3455,1322567,FISHBAR,2049807.0,restaurant,2013-06-28,41.93616004524838,-87.65412667379472,2013,Restaurant
3456,1151410,NEW ATTITUDE,11629.0,restaurant,2013-06-27,41.75949810088667,-87.66378740806958,2013,Restaurant
3457,1353384,FONTANA GRILL,1891933.0,restaurant,2013-06-27,41.96520168028951,-87.66368369977876,2013,Restaurant
3458,1353428,TRAVELLE,2245371.0,restaurant,2013-06-27,41.88793874358949,-87.62703564148782,2013,Restaurant
3459,1345325,JOHNNY ROCKETS,2036580.0,restaurant,2013-06-18,41.88269466861121,-87.63253142666058,2013,Restaurant
3461,1353278,BURGER GUYS,2263369.0,restaurant,2013-06-24,41.80100543752876,-87.68661612013953,2013,Restaurant
3462,1353269,TAQUERIA LOS AMIGOS,1490260.0,restaurant,2013-06-24,41.80061941881158,-87.71045584912062,2013,Restaurant
3464,1198926,JADE EAST RESTAURANT,66572.0,restaurant,2013-06-20,41.92757677830966,-87.65152817242594,2013,Restaurant
3465,1345335,GOODWIN'S,2263166.0,restaurant,2013-06-20,41.88602541254114,-87.63629770323044,2013,Restaurant
3470,1336178,JJ FISH & CHICKEN,1305863.0,restaurant,2013-06-18,41.707421537783866,-87.5595028300987,2013,Restaurant
3471,1336151,MIDWAY AIRPORT CONCESSIONAIRES,1329932.0,restaurant,2013-06-18,41.79770707150579,-87.74869426106613,2013,Restaurant
3473,1336124,WING WAH LAU RESTAURANT,2020867.0,restaurant,2013-06-14,41.814554270530905,-87.70372129941862,2013,Restaurant
3474,1329344,CRAZY CALABRESE,2245892.0,restaurant,2013-06-13,41.9412421419016,-87.80700925680553,2013,Restaurant
3475,1336082,"MCDONALD'S REST. OF ILLINOIS, INC",1332910.0,restaurant,2013-06-13,41.92293104255376,-87.74611947794307,2013,Restaurant
3477,1329342,MARTINI CLUB AT MANOR BOWLING & BILLIARD,1270793.0,restaurant,2013-06-12,41.9375195593423,-87.76660696128712,2013,Restaurant
3478,1106617,Sol Ga Restaurant,1447275.0,restaurant,2013-06-11,41.987306873328,-87.70243592216174,2013,Restaurant
3479,1322543,COCKTAIL,2032669.0,restaurant,2013-06-11,41.94357316110511,-87.64922664095873,2013,Restaurant
3484,1151357,FATHER PEREZ K OF C CLUB HOUSE,69690.0,restaurant,2013-06-07,41.69158385086208,-87.70671869760828,2013,Restaurant
3487,1329330,RETRO CAFE RESTAURANT,1592391.0,restaurant,2013-06-06,41.94000063078428,-87.76669660556573,2013,Restaurant
3488,1198898,SAPORI,1124199.0,restaurant,2013-06-05,41.93157849671675,-87.64882493936558,2013,Restaurant
3489,1092490,A. J. HUDSON'S PUBLIC HOUSE,1248488.0,restaurant,2013-06-05,41.950735168842144,-87.66881290118066,2013,Restaurant
3490,1106603,NEW NAAN ON DEVON & GRILL,1927149.0,restaurant,2013-06-05,41.99767715851917,-87.68659940889371,2013,Restaurant
3492,1335899,RONNY'S,2074098.0,restaurant,2013-06-04,41.85773522836464,-87.66318100396168,2013,Restaurant
3494,1151341,WHAT'S POPPPIN,1592532.0,restaurant,2013-06-04,41.77931093233566,-87.68745502921446,2013,Restaurant
3497,1114853,FIORELLI PIZZA,2245201.0,restaurant,2013-05-31,41.88422707893843,-87.65151813840151,2013,Restaurant
3500,1335851,THE ORIGINAL GINO'S EAST,1488968.0,restaurant,2013-05-31,41.98740959681793,-87.84438866503623,2013,Restaurant
3503,1335841,"LA UNICA FOOD MART, INC.",491.0,restaurant grocery store,2013-05-31,41.99799345967903,-87.66842788571333,2013,Restaurant
3504,1106590,FUNGS INTERNATIONAL CUISINE,2262550.0,restaurant,2013-05-30,42.00780902250199,-87.66542847509838,2013,Restaurant
3507,1335861,DUFF'S DOGS,2138321.0,restaurant,2013-05-30,41.99294605509157,-87.80026922618272,2013,Restaurant
3508,1099003,SEOUL DAN LAN II,2245306.0,restaurant,2013-05-30,41.97459679112475,-87.69235541072091,2013,Restaurant
3510,1335809,EL POLLO JUGOSO,2157041.0,restaurant,2013-05-29,41.95384422496512,-87.70243677625855,2013,Restaurant
3512,1335786,IL VICINATO INC,6509.0,restaurant,2013-05-28,41.84738506264664,-87.68536343468041,2013,Restaurant
3513,1198886,WOK'S UP RESTAURANT,1093339.0,restaurant,2013-05-28,41.91336686461645,-87.6530507891693,2013,Restaurant
3515,1162234,Lee's Wok,2189315.0,restaurant,2013-05-28,41.90942295171615,-87.77073264988142,2013,Restaurant
3516,1343294,D CHILE,2262202.0,restaurant,2013-05-28,41.84431729748476,-87.71161124665909,2013,Restaurant
3517,1343293,LAURO'S TACOS,2079223.0,restaurant,2013-05-28,41.84431729748476,-87.71161124665909,2013,Restaurant
3518,1198884,TRINITY BAR,33783.0,restaurant,2013-05-24,41.93217875319461,-87.6488453709766,2013,Restaurant
3519,1106581,RUB BBQ COMPANY,2048886.0,restaurant,2013-05-24,42.00853953880006,-87.69050051086757,2013,Restaurant
3520,1343291,LAYMON'S BBQ CATERING AND HOMEMADE SAUSAGES,2256673.0,restaurant,2013-05-24,41.88173636270188,-87.74274787656975,2013,Restaurant
3521,1198883,RANGE,2261809.0,restaurant,2013-05-24,41.92157698377766,-87.65672651542604,2013,Restaurant
3522,1335738,GARDEN GRILL INN,2177243.0,restaurant,2013-05-23,41.91729424455668,-87.70654528949485,2013,Restaurant
3523,1335733,Quiznos,34240.0,restaurant,2013-05-23,42.008536400868735,-87.91442843927047,2013,Restaurant
3525,1335728,CHINA STATION,2261834.0,restaurant,2013-05-23,41.910205129391386,-87.68770229368916,2013,Restaurant
3526,1198876,GALBEE CITY,2133677.0,restaurant,2013-05-22,41.92663529898981,-87.64095558948213,2013,Restaurant
3527,1138960,STARBUCKS COFFEE,2147404.0,restaurant,2013-05-21,41.89250116694964,-87.62824273781878,2013,Restaurant
3528,1324476,Eurest Dining Services @ USG,1800576.0,restaurant,2013-05-21,41.87939279810978,-87.64162617690114,2013,Restaurant
3529,1335675,REZA'S RESTAURANT,20500.0,restaurant,2013-05-21,41.97784289507301,-87.66820740032976,2013,Restaurant
3530,1335673,SUBWAY SANDWICH STORE,1330081.0,restaurant,2013-05-21,41.99767707665171,-87.69924897816243,2013,Restaurant
3531,1335668,WAYNE MOY CHOP SUEY,1302162.0,restaurant,2013-05-21,41.77770550864039,-87.77399488381793,2013,Restaurant
3532,1335665,CHICAGO O'HARE MARRIOTT HOTEL,34350.0,restaurant,2013-05-21,41.9867885856625,-87.84012417346162,2013,Restaurant
3534,1138953,THE FIRE PLACE INN,2103787.0,restaurant,2013-05-20,41.90897767837672,-87.63478912164865,2013,Restaurant
3535,1227958,PALETERIA LINDO MICHOACAN,1960160.0,restaurant,2013-05-20,41.808458792512496,-87.6686697497996,2013,Restaurant
3536,1227957,CAFE TRINIDAD,2241060.0,restaurant,2013-05-20,41.80960925369593,-87.6089291095637,2013,Restaurant
3537,1335601,BIG BOWL,2192972.0,restaurant,2013-05-16,42.008536400868735,-87.91442843927047,2013,Restaurant
3539,1305292,YUGOSLAV BENEVOLENT CLUB-HERITAGE MANOR,9338.0,restaurant,2013-05-15,41.7911129192512,-87.78190806403497,2013,Restaurant
3542,1319540,EDIBLE ARRANGEMENTS OF CHICAGO-HYDE PARK,1802900.0,restaurant,2013-05-14,41.802344169636754,-87.58921808934608,2013,Restaurant
3546,1335511,BEN & JERRY'S ( NAVY PIER ),1379478.0,restaurant,2013-05-13,41.892094136861786,-87.61156988394656,2013,Restaurant
3547,1329284,THALI'S RESTAURANT,1975224.0,restaurant,2013-05-13,41.93834100224705,-87.77635804996433,2013,Restaurant
3548,1335486,ENDGRAIN,2252847.0,restaurant,2013-05-10,41.94678887802327,-87.6759470310188,2013,Restaurant
3549,1166303,ROMA'S BEEF & SAUSAGE,2189429.0,restaurant,2013-05-09,41.9581338522444,-87.74730419947862,2013,Restaurant
3551,1155033,MEXICAN INN RESTAURANT,39034.0,restaurant,2013-05-09,41.722691144439885,-87.53651002903115,2013,Restaurant
3554,1335427,BURGER KING #12371,2232349.0,restaurant,2013-05-09,41.895260950237294,-87.72574429245381,2013,Restaurant
3555,1322486,LAST BAY BEER COMPANY LLC,2137663.0,restaurant,2013-05-09,41.939309677466014,-87.64422837055051,2013,Restaurant
3556,1188615,SARITAS RESTAURANT & BAKERY,2202189.0,restaurant,2013-05-08,41.94474527601309,-87.70631429845226,2013,Restaurant
3557,1335402,Red Mango,2246383.0,restaurant,2013-05-08,41.90903765406101,-87.67514592249044,2013,Restaurant
3558,1335406,FLASH TACO -N- UNDERDOGG,1947473.0,restaurant,2013-05-08,41.910278971100325,-87.67761701039795,2013,Restaurant
3561,1335418,SHARK,1841251.0,restaurant,2013-05-08,41.71243329870023,-87.60535893666004,2013,Restaurant
3562,1227925,FATTY'S HOT DOGS,1594513.0,restaurant,2013-05-07,41.81574934302802,-87.66612592500469,2013,Restaurant
3563,1296351,BURGER KING #8312,1698090.0,restaurant,2013-05-06,41.763491056003545,-87.58640664530046,2013,Restaurant
3564,1198839,SAIMAI THAI RESTAURANT,2252961.0,restaurant,2013-05-06,41.91844708184752,-87.63792342122498,2013,Restaurant
3565,1335341,RIVIERA NAYARIT DE CHUY VNO,2247171.0,restaurant,2013-05-06,41.85793564944198,-87.66440105973014,2013,Restaurant
3566,1335340,TAQUERIA EL TACOTOTE INC.,2162795.0,restaurant,2013-05-06,41.85792305759263,-87.66521187127117,2013,Restaurant
3567,1235767,CHEZ SIMO,2246713.0,restaurant,2013-05-06,41.96886998351493,-87.6788771968552,2013,Restaurant
3568,1235768,CINNAMON CAFE,2109914.0,restaurant,2013-05-06,41.96886998351493,-87.6788771968552,2013,Restaurant
3569,1335329,CHICAGO DOWNTOWN MARRIOTT,33836.0,restaurant,2013-05-03,41.892140783720365,-87.62431278442189,2013,Restaurant
3571,1296345,LUCKY DOGZ,2108018.0,restaurant,2013-05-03,41.71330417676166,-87.55080353579426,2013,Restaurant
3572,1335309,EL HUARACHE DE MARIA,2253032.0,restaurant,2013-05-03,41.92424543692604,-87.75411405185369,2013,Restaurant
3573,1335297,SEE THRU CHINESE KITCHEN,1544893.0,restaurant,2013-05-02,41.972298685108974,-87.72828865664586,2013,Restaurant
3574,1335295,DADDY'S PIZZA,1921155.0,restaurant,2013-05-02,41.92451447028701,-87.7334283377626,2013,Restaurant
3576,1227912,BRONZEVILLE GOURMET PIZZERIA,2036344.0,restaurant,2013-05-02,41.81644707189336,-87.62317587391068,2013,Restaurant
3577,1322479,BOUNTIFUL EATERY INC.,2158065.0,restaurant,2013-05-02,41.94225384619244,-87.64461495882912,2013,Restaurant
3578,1296339,SEASHELL FISH & CHICKEN,1648010.0,restaurant,2013-05-01,41.765189524327816,-87.57613310396634,2013,Restaurant
3579,1329269,ASIAN KITCHEN,2060640.0,restaurant,2013-04-30,41.953030603320926,-87.78621173285995,2013,Restaurant
3583,1327176,FAT RICE,2153170.0,restaurant,2013-04-25,41.93195263345422,-87.70230044003843,2013,Restaurant
3584,1151259,LITTLE CAESARS PIZZA,2225.0,restaurant,2013-04-24,41.706470341352855,-87.6814771388028,2013,Restaurant
3586,1106511,WOLFY'S,3532.0,restaurant,2013-04-24,41.99055870147753,-87.69840026233868,2013,Restaurant
3587,1277805,The Violet Hour,83111.0,restaurant,2013-04-24,41.90892140028331,-87.67756779552343,2013,Restaurant
3588,1327153,El Paraiso Terrenal 1,2157647.0,restaurant,2013-04-24,41.91723851508432,-87.72948674595392,2013,Restaurant
3593,1114782,SAUCY PORKA,2252541.0,restaurant,2013-04-23,41.876797440785374,-87.63325591022408,2013,Restaurant
3594,1114783,TRADER MIKE,2130192.0,restaurant,2013-04-23,41.876797440785374,-87.63325591022408,2013,Restaurant
3596,1072376,SUPER STAR & GYROS # 2 INC.,2120460.0,restaurant,2013-04-23,41.80862762829546,-87.6550409143026,2013,Restaurant
3598,1296325,POLKA SAUSAGE & DELI,10963.0,restaurant,2013-04-22,41.735820289668375,-87.55124868960637,2013,Restaurant
3599,1343229,LOS CORRALES TAQUERIA Y RESTAURANTE,1846965.0,restaurant,2013-04-22,41.85174454712867,-87.69882322090157,2013,Restaurant
3601,1098937,THAI VALLEY RESTAURANT,83774.0,restaurant,2013-04-19,41.9647402921461,-87.70850367911711,2013,Restaurant
3603,1327065,JALAPENO GRILL,2179749.0,restaurant,2013-04-19,41.91757216077946,-87.69985903100972,2013,Restaurant
3604,920326,MAXWELL'S CHARCOAL GRILL,2013570.0,restaurant,2013-04-18,41.75819780166309,-87.62068479659459,2013,Restaurant
3606,1327024,D'AGOSTINOS PIZZA,1948443.0,restaurant,2013-04-17,41.94696420186995,-87.6636616004036,2013,Restaurant
3607,1327023,SU TAQUERIA EL GALLO BRAVO 7,2179705.0,restaurant,2013-04-17,41.96817438867154,-87.72406340372288,2013,Restaurant
3615,1235737,MAGNOLIA CAFE,1168915.0,restaurant,2013-04-16,41.965460916735424,-87.6606409265738,2013,Restaurant
3617,1326994,LEE'S WOK,1141753.0,restaurant,2013-04-16,41.96151913499143,-87.66641967502689,2013,Restaurant
3618,1326959,BURRITO GRANDE PEREZ,2138152.0,restaurant,2013-04-15,41.80085699795718,-87.72959311345365,2013,Restaurant
3623,1198800,WEBSTER'S WINE BAR,37811.0,restaurant,2013-04-11,41.92170971743507,-87.66630971808745,2013,Restaurant
3626,1324396,MACELLO RISTORANTE,1803943.0,restaurant,2013-04-10,41.88537249282454,-87.65821234045592,2013,Restaurant
3627,1326840,AY CHIWOWA,2233265.0,restaurant,2013-04-09,41.89645685790188,-87.63618117278183,2013,Restaurant
3629,1098913,SMOKEY BEARS 1 LLC,2031630.0,restaurant,2013-04-08,41.97582181741593,-87.71172940864518,2013,Restaurant
3630,1305253,FLAMINGO CAFE,33011.0,restaurant,2013-04-08,41.79456474995328,-87.76914449094998,2013,Restaurant
3631,1326773,PIZZA RIBS & THINGS,3932.0,restaurant,2013-04-08,41.70743170470609,-87.61337194527366,2013,Restaurant
3633,1166265,CITY CAFE RESTAURANT,2060407.0,restaurant,2013-04-04,41.94014438603069,-87.72735832046867,2013,Restaurant
3634,1326728,EPIC,1875078.0,restaurant,2013-04-04,41.89012300513693,-87.63168459655718,2013,Restaurant
3637,1326694,HONG LI INC.,1903934.0,restaurant,2013-04-03,41.80273769965478,-87.60656723648658,2013,Restaurant
3638,1326645,ORBIT ROOM CHICAGO,1772245.0,restaurant,2013-04-01,41.935625542674586,-87.69757531622648,2013,Restaurant
3639,1326629,TRUMP INTERNATIONAL HOTEL,2048786.0,restaurant,2013-03-28,41.88928401352933,-87.62654854794113,2013,Restaurant
3640,1305244,BURRITOS JUAREZ,2055070.0,restaurant,2013-04-01,41.78492213391504,-87.7227863914915,2013,Restaurant
3641,1326643,GARIFUNA FLAVA CARIBBEAN RESTAURANT,1846423.0,restaurant,2013-04-01,41.77932168193389,-87.68688341529598,2013,Restaurant
3642,1114751,623 WABASH,2114659.0,restaurant,2013-04-01,41.87390845559158,-87.62583770570953,2013,Restaurant
3645,1198780,GREEN TEA JAPANESE RESTAURANT,1044031.0,restaurant,2013-03-28,41.922146045915134,-87.63854595404018,2013,Restaurant
3646,1166253,Subway,2048240.0,restaurant,2013-03-28,41.93881423391841,-87.75626562221446,2013,Restaurant
3649,1326552,LAVO ASIAN GRILL INC.,2152960.0,restaurant,2013-03-26,41.99219145958816,-87.66048376916835,2013,Restaurant
3650,1151199,KRISPY KRUNCHY CHICKEN,2138615.0,restaurant,2013-03-26,41.75466012439374,-87.74138475860521,2013,Restaurant
3652,1146306,NEW LOVE TERIYAKI,2114749.0,restaurant,2013-02-14,41.82273507901569,-87.6944843232236,2013,Restaurant
3653,1326518,PAPA SMILES ICE CREAM PARLOUR,75227.0,restaurant,2013-03-25,41.79195780103791,-87.79622365210764,2013,Restaurant
3654,1198764,SUBWAY FULLERTON & ASHLAND,1645223.0,restaurant,2013-03-22,41.92506665893317,-87.66633415361996,2013,Restaurant
3655,1174542,Zaytune Mediterranean Grill,2009543.0,restaurant,2013-03-21,41.83713294787266,-87.65097503508115,2013,Restaurant
3657,1327238,SUBWAY #23340,1645082.0,restaurant,2013-03-20,41.88163118732629,-87.62605242525508,2013,Restaurant
3662,1326320,LA QUEBRADA #5,2202706.0,restaurant,2013-03-14,41.77883224217794,-87.71858977432377,2013,Restaurant
3663,1326315,VOLARE,2141813.0,restaurant,2013-03-13,41.89165221441017,-87.62260381408842,2013,Restaurant
3665,1327220,DUNKIN DONUTS,1718249.0,restaurant,2013-03-13,41.87739693703613,-87.62751493171092,2013,Restaurant
3666,1235690,STELLA ESPRESSO COMPANY,1738944.0,restaurant,2013-03-13,41.99805033405427,-87.66298528869856,2013,Restaurant
3667,1321754,CHARLEY THAI PLACE INC,1228026.0,restaurant,2013-02-06,41.91728802065993,-87.70737270122645,2013,Restaurant
3668,1198740,RICE CAFE,1803589.0,restaurant,2013-03-11,41.92177670443333,-87.66441304702406,2013,Restaurant
3670,1321782,KFC,2146633.0,restaurant,2013-02-07,41.9538624002924,-87.69855459328778,2013,Restaurant
3673,1322152,NICKY'S CHINESE FOOD,1299747.0,restaurant,2013-03-06,41.79995222840709,-87.59650591702139,2013,Restaurant
3676,1322085,RED SNAPPER,2232836.0,restaurant,2013-02-28,41.736730601766894,-87.59114387212324,2013,Restaurant
3678,1322384,Taco Fuego,2027521.0,restaurant,2013-02-26,41.939780043232055,-87.6705978116952,2013,Restaurant
3679,1324329,KLAY OVEN KITCHEN,2142755.0,restaurant,2013-02-26,41.884187507127805,-87.64111966683218,2013,Restaurant
3680,1322046,AU BON PAIN,2229492.0,restaurant,2013-02-26,41.89490330235543,-87.62074372623964,2013,Restaurant
3681,1322378,CHEN'S,42657.0,restaurant,2013-02-25,41.945742521799225,-87.65551181178837,2013,Restaurant
3682,1098847,EL ARCO DE PALMAR,2153284.0,restaurant,2013-02-25,41.96837877316548,-87.70443702846717,2013,Restaurant
3685,1277695,Takito Kitchen,2196831.0,restaurant,2013-02-22,41.9030710919784,-87.67783097051901,2013,Restaurant
3687,1307233,PORETTA'S RESTAURANT,43956.0,restaurant,2013-02-21,41.94759577681167,-87.76696293999464,2013,Restaurant
3689,1084401,BEST QUICK SUBS,2089423.0,restaurant,2013-02-21,41.88536969377596,-87.7256562397167,2013,Restaurant
3693,1321922,HOWELLS & HOOD,2189702.0,restaurant,2013-02-19,41.89042415977223,-87.623965477756,2013,Restaurant
3694,1174527,MCDONALD'S,1332928.0,restaurant,2013-02-15,41.85812821105203,-87.66111256351493,2013,Restaurant
3695,1321910,JERKY JERK,2232338.0,restaurant,2013-02-15,41.99807015118323,-87.66132071008309,2013,Restaurant
3696,1138833,ROBUST COFFEE LOUNGE LLC,2232227.0,restaurant,2013-02-15,41.89322898385349,-87.63930512981067,2013,Restaurant
3697,1319387,7TH FLOOR SKY LOBBY,2183905.0,restaurant,2013-02-15,41.79126061783551,-87.60508491200589,2013,Restaurant
3698,1321902,D'GIGIO'S PIZZERIA,1576856.0,restaurant,2013-02-15,41.9385394320182,-87.7606308007806,2013,Restaurant
3699,1227747,STANLEY'S,2196163.0,restaurant,2013-02-14,41.815932975471945,-87.66529632778995,2013,Restaurant
3700,1084388,Lou Malnati's Pizzeria,1442277.0,restaurant,2013-02-13,41.85186555681628,-87.7220243874229,2013,Restaurant
3701,1198696,THE COUNTER-CUSTOM BUILT,1893201.0,restaurant,2013-02-14,41.93288704814085,-87.64611922040106,2013,Restaurant
3702,1321855,EL OASIS GRILL,2079961.0,restaurant,2013-02-13,41.9048094553048,-87.72270160790991,2013,Restaurant
3703,1321851,"GEN HOE 3 RESTAURANT,INC",2026242.0,restaurant,2013-02-13,41.75103563717988,-87.61339828673648,2013,Restaurant
3704,1321842,LA QUEBRADA #6,1801404.0,restaurant,2013-02-13,41.90974891018372,-87.72833212113581,2013,Restaurant
3709,1235647,LOS ARCOS RESTAURANT,2102561.0,restaurant,2013-02-11,41.982461137454926,-87.66839934788841,2013,Restaurant
3710,1235646,NUEVA ITALY,2109422.0,restaurant,2013-02-08,42.011732207053896,-87.67434398539741,2013,Restaurant
3716,1114663,IBAO EXPRESS FOOD INC.,2225549.0,restaurant,2013-02-07,41.85528170377401,-87.63199264229414,2013,Restaurant
3717,1198686,FLAGSHIP TAVERN & GRILL,2231808.0,restaurant,2013-02-06,41.93979302024049,-87.66961664829614,2013,Restaurant
3718,1321762,VEGGIE BITE,1892363.0,restaurant,2013-02-06,41.905200085347865,-87.66957875405194,2013,Restaurant
3721,1084377,Grubbs Grill,1979928.0,restaurant,2013-02-06,41.88051271628613,-87.7344379090307,2013,Restaurant
3722,1154856,PICAZOS MEXICAN GRILL,2179250.0,restaurant,2013-02-05,41.67080248296264,-87.64152738486891,2013,Restaurant
3723,1307211,LEADBELLY,2203564.0,restaurant,2013-02-05,41.95302031944678,-87.77104624990605,2013,Restaurant
3726,1206426,SABOR LATINO RESTAURANT,1301193.0,restaurant,2013-02-01,41.91004427825765,-87.72188751465175,2013,Restaurant
3727,1321671,CAPT'N NEMO,47163.0,restaurant,2013-01-31,42.01570881263429,-87.67500336670203,2013,Restaurant
3730,1321620,HALINA'S POLISH DELIGHT REST,40683.0,restaurant,2013-01-29,41.967787353343006,-87.77542758598545,2013,Restaurant
3731,1324290,LILLIE'S Q,2203492.0,restaurant,2013-01-29,41.884187507127805,-87.64111966683218,2013,Restaurant
3735,1114645,MCDONALDS,2204169.0,restaurant,2013-01-28,41.83095278930358,-87.62144916300736,2013,Restaurant
3736,1321574,DAVID BURKE'S PRIMEHOUSE,1884681.0,restaurant,2013-01-28,41.89313081087328,-87.62555906428202,2013,Restaurant
3738,1321532,CIPRIANI'S PIZZA,31749.0,restaurant,2013-01-24,41.7780377033631,-87.76816655503362,2013,Restaurant
3739,1321518,RON'S GRILL ETC,1841674.0,restaurant,2013-01-24,41.96939422175831,-87.76188717239603,2013,Restaurant
3740,1198670,THE EDGE,2151996.0,restaurant,2013-01-24,41.93184646651035,-87.64473273697101,2013,Restaurant
3741,1198671,GOLDEN NUGGET,14422.0,restaurant,2013-01-24,41.93184646651035,-87.64473273697101,2013,Restaurant
3742,1292283,CERES CAFE,18237.0,restaurant,2013-01-23,41.87802565526084,-87.63206228626693,2013,Restaurant
3748,1277662,BAGEL ON DAMEN,2009342.0,restaurant,2013-01-18,41.90488420426394,-87.67745148114881,2013,Restaurant
3749,1206414,THAI EATERY,1928267.0,restaurant,2013-01-17,41.92265069127367,-87.68771967162458,2013,Restaurant
3752,1322326,RICKSHAW REPUBLIC,2220915.0,restaurant,2013-01-17,41.92387940553193,-87.6467837684582,2013,Restaurant
3755,1321373,CARNITAS DON MIGUEL,2192611.0,restaurant,2013-01-15,41.9048094553048,-87.72270160790991,2013,Restaurant
3756,1138762,ROY'S,1446638.0,restaurant,2013-01-15,41.8956362719614,-87.62832032238215,2013,Restaurant
3758,1277652,Cafe Central,2204097.0,restaurant,2013-01-15,41.89601487282557,-87.66400463193145,2013,Restaurant
3759,1277650,NATALINO'S,1740246.0,restaurant,2013-01-15,41.89598601947587,-87.6658140002963,2013,Restaurant
3760,1138756,HARD ROCK CAFE,51236.0,restaurant,2013-01-14,41.89312775453658,-87.63056251830054,2013,Restaurant
3762,1092274,WINDY CITY GYROS,71095.0,restaurant,2013-01-11,41.95371591865941,-87.65014628741659,2013,Restaurant
3763,1146240,PALETERIA EL SABAR DE MICHOACAN,1894644.0,restaurant,2013-01-11,41.79357416229614,-87.70698871848467,2013,Restaurant
3764,1321286,AP DELI,1822585.0,restaurant,2013-01-11,41.77873184756822,-87.69352927439374,2013,Restaurant
3765,1292265,PASTORAL,1820903.0,restaurant,2013-01-11,41.885618984652936,-87.62616146233678,2013,Restaurant
3766,1321276,PETE THE GREEKS REST,1575490.0,restaurant,2013-01-10,41.86642816801653,-87.66623647680325,2013,Restaurant
3768,1188466,CHOP TOUHY,2021764.0,restaurant,2013-01-10,42.01187856476175,-87.70337002780445,2013,Restaurant
3769,1292260,MCDONALD'S RESTAURANTS,1884173.0,restaurant,2013-01-10,41.87971889634663,-87.62628114547579,2013,Restaurant
3770,1106383,SUKHADIA SWEETS & SNACKS,1493645.0,restaurant,2013-01-09,41.99753950771954,-87.69461506221796,2013,Restaurant
3773,1151072,HORSE THIEF HOLLOW,2138162.0,restaurant,2013-01-09,41.70372585737061,-87.6816837996614,2013,Restaurant
3774,1138742,YOGURTLAND,2172697.0,restaurant,2013-01-08,41.903831045544194,-87.6287400477595,2013,Restaurant
3778,1301180,TACO EL JALICIENCE #2,2124992.0,restaurant,2013-01-07,41.830460657958376,-87.68518672520281,2013,Restaurant
3780,1286226,NICK JR.'S GRILL,1992471.0,restaurant,2013-01-07,41.90910578560824,-87.7970900667382,2013,Restaurant
3781,1301168,RED COACH RESTAURANT,45131.0,restaurant,2013-01-07,41.75912971390726,-87.74155364936757,2013,Restaurant
3783,1271484,Chicken 1-2-3,2074442.0,restaurant,2013-01-04,41.93629987120909,-87.75674980489909,2013,Restaurant
3784,1313373,Eurest Dining Services @ Boeing,1797888.0,restaurant,2013-01-04,41.88326585294293,-87.63876082126886,2013,Restaurant
3787,1277627,Sabor Saveur,1998853.0,restaurant,2013-01-04,41.9030710919784,-87.67783097051901,2013,Restaurant
3792,1188456,ben tre cafe,2003718.0,restaurant,2013-01-03,42.01197987928261,-87.70853385148317,2013,Restaurant
3793,1188455,BEN TRE CAFE,1620964.0,restaurant,2013-01-03,42.01197987928261,-87.70853385148317,2013,Restaurant
3795,1301115,Mario's Tacos Corporation,2202954.0,restaurant,2013-01-03,41.92450769084945,-87.73398032565292,2013,Restaurant
3799,1235575,DOMINO'S PIZZA,37507.0,restaurant,2012-12-31,41.98880582200982,-87.67003676349547,2013,Restaurant
3801,1322297,T TASTY HOUSE,2017359.0,restaurant,2012-12-27,41.85528170377401,-87.63199264229414,2013,Restaurant
3802,1277614,POPEYES FAMOUS FRIED CHICKEN,14897.0,restaurant,2012-12-27,41.88263293865735,-87.686621829305,2013,Restaurant
3804,1202578,"ACE COFFEE BAR, INC.",2134493.0,restaurant,2012-12-27,41.80808535176826,-87.71539543726277,2013,Restaurant
3805,1301033,THE GREENVILLE TAVERN,2196009.0,restaurant,2012-12-24,41.89592753693274,-87.68245458783402,2013,Restaurant
3807,1313351,SOUTHPORT AND IRVING,2098562.0,restaurant,2012-12-21,41.95446338537809,-87.66436412867908,2013,Restaurant
3812,1138710,LES NOMADES LIMITED PRTNERSHP,32633.0,restaurant,2012-12-19,41.89348084454796,-87.6220740599313,2013,Restaurant
3813,1138709,RON OF JAPAN INC,1673.0,restaurant,2012-12-19,41.89348367731226,-87.62188276840526,2013,Restaurant
3814,1198634,HIGGINS TAVERN,22897.0,restaurant,2012-12-19,41.94161681584836,-87.65887368072896,2013,Restaurant
3816,1301013,LINCOLN HALL,1932879.0,restaurant,2012-12-19,41.92593792180545,-87.64966458497088,2013,Restaurant
3818,1114612,G & G 59TH ST INC,48142.0,restaurant,2012-12-14,41.87961077820512,-87.62685551466794,2013,Restaurant
3820,1138688,ROSTIS PIZZA,1577912.0,restaurant,2012-12-12,41.89171839486572,-87.63233795769975,2013,Restaurant
3822,1300874,Campeche Cuisine,1357013.0,restaurant,2012-12-11,41.993151143293765,-87.71209940511191,2013,Restaurant
3828,1150998,7 DAYS RESTAURANT,2192658.0,restaurant,2012-12-10,41.724809224398726,-87.6431577606974,2013,Restaurant
3829,1296248,COMM MENTAL HEALTH COUNCIL INC,15043.0,restaurant,2012-12-10,41.73679866657223,-87.57950448750407,2013,Restaurant
3835,1300762,EL MAYA,2202081.0,restaurant,2012-12-05,41.96170895155842,-87.66875485191896,2013,Restaurant
3839,1098737,2012 W IRVING PARK,9320.0,restaurant,2012-12-04,41.954256928155736,-87.67941312777955,2013,Restaurant
3840,1322235,TANOOR KABOB INC.,2158663.0,restaurant,2012-12-04,41.85757610866475,-87.64200897164467,2013,Restaurant
3841,1114591,MEZZA,1985190.0,restaurant,2012-12-04,41.88184063003713,-87.63325508941321,2013,Restaurant
3843,1300718,AFC Sushi @ Dominicks # 2984,1985617.0,restaurant,2012-11-30,42.002223375062094,-87.68012882798133,2013,Restaurant
3844,1138663,POTBELLY SANDWICH WORKS LLC,1592157.0,restaurant,2012-11-30,41.89168851736832,-87.62430717812579,2013,Restaurant
3846,1300707,BACI FROM TAYLOR STREET,2004354.0,restaurant,2012-11-30,41.938766325661774,-87.80662717235832,2013,Restaurant
3847,1150971,FLIP RESTAURANT,2152390.0,restaurant,2012-11-30,41.7352585267498,-87.70463151056376,2013,Restaurant
3850,1202537,LA PLACITA DE DURANGO,2134104.0,restaurant,2012-11-29,41.80102712134728,-87.68530842130838,2013,Restaurant
3854,1114579,BENJYEHUDA,2202121.0,restaurant,2012-11-27,41.88167475683708,-87.63250418895821,2013,Restaurant
3856,1235539,DELTA SKY CLUB,30040.0,restaurant,2012-11-27,42.008536400868735,-87.91442843927047,2013,Restaurant
3857,1206375,THE SOUTHERN,1803861.0,restaurant,2012-11-27,41.9106455744334,-87.67420058686105,2013,Restaurant
3858,1174464,EL DRAGON,2087980.0,restaurant,2012-11-26,41.844358013163685,-87.70862525093862,2013,Restaurant
3859,1098720,DOS SABORES,2146469.0,restaurant,2012-11-26,41.94474527601309,-87.70631429845226,2013,Restaurant
3862,1206364,EARWAX RECORDS & CAFE,1354827.0,restaurant,2012-11-20,41.9099624339063,-87.67659113132366,2013,Restaurant
3864,1138637,FRESH CHOICE,47826.0,restaurant,2012-11-20,41.91018442836669,-87.63482698262082,2013,Restaurant
3867,1138627,O'LEARY'S PUBLIC HOUSE,32939.0,restaurant,2012-11-19,41.89198922796648,-87.63393057860532,2013,Restaurant
3869,1098714,JOHN'S PLACE,1869112.0,restaurant,2012-11-16,41.94328079486431,-87.68215298235329,2013,Restaurant
3872,1134732,GRAHAMWICH,2069451.0,restaurant,2012-11-15,41.893017092829375,-87.62797013454323,2013,Restaurant
3873,1114555,ELEPHANT & CASTLE PUB & RESTAURANT,2142599.0,restaurant,2012-11-15,41.88543167061009,-87.626119285512,2013,Restaurant
3876,1300489,Cafe Latin Bliss,8404.0,restaurant,2012-11-14,41.98186603682908,-87.69283405676238,2013,Restaurant
3877,1300476,Hash,2198209.0,restaurant,2012-11-14,41.90652074293957,-87.68697283049944,2013,Restaurant
3880,1286153,PIZZARO'S,2032324.0,restaurant,2012-10-26,41.92367997663243,-87.79876127470351,2013,Restaurant
3883,1198427,UKAI SUSHI,2037236.0,restaurant,2012-09-07,41.93976468449341,-87.65647301014421,2013,Restaurant
3890,1206285,Carriage House,2147076.0,restaurant,2012-08-28,41.90340737417533,-87.67046561351754,2013,Restaurant
3892,1134495,MARTINI PARK,1817052.0,restaurant,2012-08-16,41.89389377199522,-87.6331734103666,2013,Restaurant
3895,1234517,TACO BELL #15875,56981.0,restaurant,2012-08-08,41.92866902058592,-87.67377920462141,2013,Restaurant
3899,1235305,TEDINO'S,18177.0,restaurant,2012-08-01,41.97918539940176,-87.65491162783847,2013,Restaurant
3901,1234359,CHICAGO KALBI INC,36111.0,restaurant,2012-07-26,41.96840866874903,-87.72276877956554,2013,Restaurant
3904,1096394,JIMMY GREEN'S,1979963.0,restaurant,2012-07-24,41.87146433662049,-87.62736908629603,2013,Restaurant
3906,1230146,HOTEL LINCOLN,2141974.0,restaurant,2012-07-17,41.91524998684686,-87.63429326814013,2013,Restaurant
3909,1235264,PAPA JOHN'S PIZZA,2163536.0,restaurant,2012-07-03,41.979882516275566,-87.65981805167141,2013,Restaurant
3910,1277241,STARLITE CAFE,1515654.0,restaurant,2012-07-02,41.91681503396404,-87.74705760204894,2013,Restaurant
3912,1138343,GIORDANO'S ON RUSH,2138494.0,restaurant,2012-06-14,41.89576984662454,-87.62562855938958,2013,Restaurant
3916,1154377,BLUE SOUL RESTAURANT,1822894.0,restaurant,2012-06-08,41.69107682993281,-87.64249045762011,2013,Restaurant
3917,1229421,FAST WOK,1677404.0,restaurant,2012-06-06,41.91810712421967,-87.69736529538596,2013,Restaurant
3919,1229351,KAI ZAN,2156904.0,restaurant,2012-06-05,41.89559157280934,-87.69163313910478,2013,Restaurant
3920,1229306,KMART #4729,2133699.0,restaurant,2012-05-31,41.90679510984423,-87.66773167006288,2013,Restaurant
3921,1150418,FRANCONELLO,33911.0,restaurant,2012-05-30,41.7074831570076,-87.68180197701842,2013,Restaurant
3922,1229206,VOPS LLC,2156979.0,restaurant,2012-05-29,41.953095125502905,-87.65435690022719,2013,Restaurant
3925,1158317,TEAZZZ,2031502.0,restaurant,2012-05-08,41.827297532413546,-87.62198502059779,2013,Restaurant
3931,1227222,JMJ CHOICE,2180081.0,restaurant,2012-04-25,41.76833318810723,-87.69027927259164,2013,Restaurant
3935,680059,SANDWICH ME IN,2109222.0,restaurant,2012-04-18,41.93743309705743,-87.64846482614013,2013,Restaurant
3939,679668,CARAVAN,2088536.0,restaurant,2012-03-22,41.96935748217429,-87.65982656853042,2013,Restaurant
3940,1214353,PALENQUE INC.,2134785.0,restaurant,2012-03-19,41.79380306284954,-87.69365620845348,2013,Restaurant
3943,679691,LA TAZZA,1768654.0,restaurant,2012-03-12,41.88808735310137,-87.6308880745296,2013,Restaurant
3944,679442,Eggsperience,2009133.0,restaurant,2012-03-08,41.8931417574988,-87.62953060218635,2013,Restaurant
3945,679601,PARADISE CANTINA,1593859.0,restaurant,2012-03-07,41.90306967771427,-87.67790675709392,2013,Restaurant
3946,679967,SURA,1768314.0,restaurant,2012-03-06,41.93841197166044,-87.64449180403412,2013,Restaurant
3949,1214738,NEW DON'S HOT DOG,1573742.0,restaurant,2012-02-21,41.80945902660068,-87.61874649572076,2013,Restaurant
3951,670557,DANA CAFE,1649067.0,restaurant,2012-02-16,41.98805967591636,-87.70370445181302,2013,Restaurant
3952,670322,PIZZA HUT RESTAURANT,2129794.0,restaurant,2012-02-08,41.85192841685362,-87.68472649164053,2013,Restaurant
3954,608325,LAS ASADAS,1909305.0,restaurant,2012-01-31,41.91887087772981,-87.68730481697142,2013,Restaurant
3961,659973,PERLA TAPATIA,1742442.0,restaurant,2012-01-12,41.90997648049417,-87.70907871582135,2013,Restaurant
132182,1369606,BARBERRY,1913956.0,restaurant,2013-10-10,41.93309241339404,-87.66343576370899,2013,Restaurant
132490,1151614,CAIRE'S PIZZA,53796.0,restaurant,2013-09-09,41.85785490146855,-87.65576066755212,2013,Restaurant
132598,1114973,FIRST DRAFT,2230617.0,restaurant,2013-08-15,41.87360828514336,-87.63050028599581,2013,Restaurant
133766,1228356,THE LITTLE FRANCIS MAXWELL STREET POLISH PORKCHOP 51ST ST,1334243.0,restaurant,2013-12-09,41.80139599557942,-87.66836713634461,2013,Restaurant
133857,1375476,2960 BEVERAGE CORPORATION,30782.0,restaurant,2013-11-15,41.93617164858792,-87.63693905225722,2013,Restaurant
134009,1376189,CHICAGO BOOTH COFFEE SHOP,2032229.0,restaurant,2013-12-23,41.78936441141914,-87.59626269511155,2013,Restaurant
134148,1228361,J & B GYROS # 4,2084732.0,restaurant,2013-12-09,41.80155641340045,-87.65539595872276,2013,Restaurant
134633,1365324,GHIRARDELLI CHOCOLATE SHOP & SODA FOUNTAIN,42120.0,restaurant,2013-10-17,41.89762924603104,-87.62427006876113,2013,Restaurant
134680,1099206,DONUT DOCTOR & EDY'S ICE CREAM,15913.0,restaurant,2013-09-25,41.9685184976338,-87.71263165748292,2013,Restaurant
134801,1305401,LA FUENTE BANQUET HALL,1841170.0,restaurant,2013-09-11,41.80121089348567,-87.68738617652345,2013,Restaurant
135004,1199065,PIZANO'S PIZZA & PASTA ON LINCOLN,2283739.0,restaurant,2013-09-09,41.92611887572662,-87.64949250846801,2013,Restaurant
135777,1365304,MILLENNIUM KNICKERBOCKER HOTEL-NIX,83345.0,restaurant,2013-10-04,41.89991467356533,-87.62305951230135,2013,Restaurant
135847,1369422,STAR  GRILL,2109133.0,restaurant,2013-10-02,41.99807133298725,-87.66123148104344,2013,Restaurant
136492,1151807,Orange Roughy Fish & Chicken,2138068.0,restaurant,2013-11-15,41.86642816801653,-87.66623647680325,2013,Restaurant
136801,1375691,HEARTLAND CAFE,2177842.0,restaurant,2013-11-27,42.00917697647974,-87.66636939865349,2013,Restaurant
136914,1375641,BARRYS SPOT PIZZA,2172671.0,restaurant,2013-11-25,41.98716055062304,-87.66003099584046,2013,Restaurant
137199,1236104,WINDY CITY CARVERS,34233.0,restaurant,2013-11-18,42.008536400868735,-87.91442843927047,2013,Restaurant
137440,1361346,Bacci Pizza Clybourn,1892182.0,restaurant,2013-09-17,41.91093474018414,-87.64933701343686,2013,Restaurant
138028,1372301,STARFRUIT CAFE,2031651.0,restaurant,2013-12-06,41.8880742810662,-87.63495520292739,2013,Restaurant
138250,1199091,D.O.C. WINE BAR,1516815.0,restaurant,2013-09-18,41.92965482376894,-87.64312758987808,2013,Restaurant
138440,1188759,NELLY'S FOOD MART CORP.,1802804.0,grocery restaurant,2013-10-11,41.91540434827496,-87.72880463333307,2013,Restaurant
138460,1092676,McDonald's,1985411.0,restaurant,2013-10-22,41.88755591037034,-87.63411765750247,2013,Restaurant
138606,1369798,WAKAMONO,1846846.0,restaurant,2013-10-18,41.94231341336203,-87.64432245610371,2013,Restaurant
138806,1365239,CONNIE'S PIZZA,2247257.0,restaurant,2013-08-16,41.90146341490292,-87.62848137148605,2013,Restaurant
141245,1375959,PHO'S THAI CUISINE,1842761.0,restaurant,2013-12-10,41.94250592179978,-87.67079776903307,2013,Restaurant
141336,1151910,CARMEN'S CAFE INC,2232516.0,restaurant,2013-12-20,41.7352585267498,-87.70463151056376,2013,Restaurant
142139,1319932,THE GAME,2060665.0,restaurant,2013-11-25,41.81621346608599,-87.61992745019688,2013,Restaurant
142383,1305479,TAYLOR STREET MARKET,1358602.0,restaurant,2013-12-19,41.789329323265385,-87.74164564419637,2013,Restaurant
142489,1236111,THE GREAT AMERICAN BAGEL,1879164.0,restaurant,2013-11-21,42.008536400868735,-87.91442843927047,2013,Restaurant
142587,1395214,GLENN'S DINER,1738519.0,restaurant,2013-12-30,41.96161213476741,-87.67543734575274,2013,Restaurant
142631,1372288,MAGGIANO'S LITTLE ITALY,44793.0,restaurant,2013-11-21,41.891439309203776,-87.63126818197672,2013,Restaurant
142671,1072686,JJ FISH,1243865.0,restaurant,2013-12-05,41.73558550639893,-87.67022566460538,2013,Restaurant
142701,1345706,HANNAH'S BRETZEL LLC,1593077.0,restaurant,2013-12-03,41.883317894491405,-87.63329669109277,2013,Restaurant
143507,1319907,GLORIOUS  CONFECTIONERY,1975243.0,restaurant,2013-11-15,41.802372145328825,-87.58730619019772,2013,Restaurant
143560,1383251,BAR CASA BLANCA,9246.0,restaurant,2013-11-22,41.89119435787647,-87.65697066575788,2013,Restaurant
143717,1375633,GALLERY FAST FOOD,2232530.0,restaurant,2013-11-25,41.699861664789154,-87.62794266900995,2013,Restaurant
143735,1391262,NICO,2271049.0,restaurant,2013-11-19,41.90119804129134,-87.6275640618535,2013,Restaurant
144180,1391246,MAJESTIC HOTEL,1887754.0,restaurant,2013-11-07,41.94744720448506,-87.64405033502861,2013,Restaurant
144256,1235955,MEI SHUNG RESTAURANT,1579243.0,restaurant,2013-09-03,41.98217442127303,-87.65988083378957,2013,Restaurant
144679,1360680,GOLDEN FISH & CHICKEN,1274958.0,restaurant,2013-09-04,41.77917310676813,-87.69698885824073,2013,Restaurant
144735,1286324,Guckenheimer @ mars itc.,2184424.0,restaurant,2013-09-27,41.905021262318606,-87.65251954438537,2013,Restaurant
144736,1360581,BIG AL'S TASTEE FREEZ,2283655.0,restaurant,2013-08-29,41.7962097696133,-87.70348643149426,2013,Restaurant
149290,1092753,QUIZNOS SUB,1954092.0,restaurant,2013-12-17,41.88220679597442,-87.62529131772706,2013,Restaurant
150447,1345713,SEATTLE'S BEST COFFEE,2042827.0,restaurant,2013-12-04,41.87964050046517,-87.62583248309637,2013,Restaurant
151826,1372320,HUBBARD INN,2032936.0,restaurant,2013-12-17,41.89012393802728,-87.63159665930549,2013,Restaurant
152447,1305466,JUAN A MUNOZ,1975251.0,restaurant,2013-12-12,41.813951721173055,-87.70405875056555,2013,Restaurant
152522,1375624,SHIRLEY SOUL FOOD AND CATERING,2289213.0,restaurant,2013-11-25,41.75841584007734,-87.60865015446163,2013,Restaurant
153550,1092664,TORTOISE CLUB,2121289.0,restaurant,2013-10-17,41.88889592769437,-87.62820008276263,2013,Restaurant
153568,1361436,JAM,1979195.0,restaurant,2013-10-22,41.89886801783141,-87.67698934844901,2013,Restaurant
153681,1361109,"LAKESHORE RACQUET CLUB, INC.",1158.0,restaurant,2013-09-19,41.925357358100776,-87.66138854381815,2013,Restaurant
153733,1361046,FLAT TOP GRILL,2262620.0,restaurant,2013-09-18,41.939872615605175,-87.66394524436866,2013,Restaurant
153752,1146524,DOGGY'S SS SOUL EATERY,1932617.0,restaurant,2013-09-11,41.87367971519565,-87.6967558019865,2013,Restaurant
153791,1343549,MY GIRLFRIENDS KITCHEN,2121141.0,restaurant,2013-11-07,41.87300937938876,-87.74554498480167,2013,Restaurant
153817,1199068,THE UPTOWNER CAFE,2064886.0,restaurant,2013-09-09,41.922731532421736,-87.6447528911125,2013,Restaurant
153942,1360598,HIBACHI SEAFOOD BUFFET,1595096.0,restaurant,2013-08-29,41.68105296497677,-87.53667486938006,2013,Restaurant
153966,1361099,EL JARDIN RESTAURANT,32881.0,restaurant,2013-09-20,41.94259951761242,-87.65264482429247,2013,Restaurant
154316,1324804,ARTURO EXPRESS,53931.0,restaurant,2013-11-22,41.87961626801739,-87.63976452343368,2013,Restaurant
154555,1369941,OLD CROW,2246018.0,restaurant,2013-10-24,41.945742521799225,-87.65551181178837,2013,Restaurant
154556,1369645,HIRO'S CAFE,1933808.0,restaurant,2013-10-11,41.93598925676013,-87.64440858727015,2013,Restaurant
154573,1188707,BARBA YIANNI TAVERNA INC.,2196054.0,restaurant,2013-09-16,41.96825393294936,-87.68817246934601,2013,Restaurant
154598,1375536,PARTS AND LABOR,2240274.0,restaurant,2013-11-19,41.93019094201453,-87.70947504959446,2013,Restaurant
154599,1372215,BISTRO VOLTAIRE,2088772.0,restaurant,2013-10-01,41.89669751034979,-87.63535931178352,2013,Restaurant
154628,1115141,WABASH TAP,70403.0,restaurant,2013-11-20,41.86652039558712,-87.62566319786642,2013,Restaurant
154629,1228303,MCCORMICK PLACE,1932251.0,restaurant,2013-11-14,41.85101977719979,-87.61388212252119,2013,Restaurant
154637,1343561,QUIMA,1960143.0,restaurant,2013-11-15,41.84431957627708,-87.71144249638085,2013,Restaurant
154642,1376095,SEASHELL RESTAURANT,2153351.0,restaurant,2013-12-17,41.72297221684076,-87.68198197466282,2013,Restaurant
154646,1389280,LAS ASADAS RESTAURANT,2036615.0,restaurant,2013-12-11,41.94034702113589,-87.7270711304646,2013,Restaurant
154648,1375864,POTBELLY SANDWICH WORKS,1841496.0,restaurant,2013-12-05,41.94004450704706,-87.65253926108572,2013,Restaurant
154650,1383313,FRANCESCA'S CAFE,2152737.0,restaurant,2013-12-16,41.89749700752528,-87.67724470842808,2013,Restaurant
154659,1376092,SUN WAH BAR-B-Q INC CO,2263820.0,restaurant,2013-12-17,41.97385028949588,-87.65965358195697,2013,Restaurant
154660,1199204,SAIMAI THAI,2298459.0,restaurant,2013-11-25,41.91844708184752,-87.63792342122498,2013,Restaurant
154661,1375555,LEVY RESTAURANTS AT UNITED CENTER,1974748.0,restaurant,2013-11-18,41.88124145680335,-87.67428253395332,2013,Restaurant
154667,1375647,"HAROLDS II BAR AND GRILL, INC.",1937457.0,restaurant,2013-11-25,41.67757986776554,-87.66517498221688,2013,Restaurant
154677,1072685,DOCKS,1445981.0,restaurant,2013-12-05,41.73638004558818,-87.62750921902564,2013,Restaurant
154679,1115182,Chartwells @ DePaul University,1166643.0,restaurant,2013-12-12,41.878110156499886,-87.62753454596945,2013,Restaurant
154682,1376056,LUCKY STRIKE LANES,1770382.0,restaurant,2013-12-13,41.891133170854566,-87.61916020704619,2013,Restaurant
154684,1375901,CAOBA,44308.0,restaurant,2013-12-06,41.91103747031633,-87.67732921269013,2013,Restaurant
154691,1115163,KASEY'S TAVERN,17178.0,restaurant,2013-12-02,41.87332434171823,-87.62902170438788,2013,Restaurant
154694,1375727,BABA'S STEAK & LEMONADE,1766349.0,restaurant,2013-11-29,41.76548541180779,-87.62183435111584,2013,Restaurant
154697,1375393,LOOSELEAF LOUNGE,1905247.0,restaurant,2013-11-14,41.93546648756444,-87.64409859642616,2013,Restaurant
154703,1375976,FRASCA,1676691.0,restaurant,2013-12-10,41.94319247252324,-87.67133728041468,2013,Restaurant
154704,1115195,PANERA BREAD #1004,1648670.0,restaurant,2013-12-20,41.8751790560578,-87.6274737894488,2013,Restaurant
154705,1372310,THE ORIGINA GINO'S EAST CHICAGO,2245991.0,restaurant,2013-12-13,41.890841457197695,-87.63270627765388,2013,Restaurant
154712,1375732,KINGFISH SEAFOOD INC,78862.0,restaurant,2013-11-29,41.76561061241392,-87.61469700301295,2013,Restaurant
154718,1092760,I DREAM OF FALAFEL,2032398.0,restaurant,2013-12-20,41.88080106551325,-87.63126132290381,2013,Restaurant
154719,1376049,ALHAMBRA PALACE RESTAURANT,1718674.0,restaurant,2013-12-13,41.88432780168576,-87.65845724300314,2013,Restaurant
154726,1383246,Links Taproom,2252373.0,restaurant,2013-11-21,41.90992611156009,-87.67653435662255,2013,Restaurant
154727,1376000,MR GYROS,1840763.0,restaurant,2013-12-12,41.90262840400714,-87.71847813811213,2013,Restaurant
154730,1372304,TACO JOINT,2141345.0,restaurant,2013-12-10,41.89330673723999,-87.6335089591321,2013,Restaurant
154732,1383350,Dunkin Donuts,2184914.0,restaurant,2013-12-30,41.909230611374326,-87.76853879722987,2013,Restaurant
154733,1151909,CAMARON VAQUERO INC.,2294053.0,restaurant,2013-12-20,41.77919212128587,-87.72292239244632,2013,Restaurant
154742,1228298,LAKESIDE CENTER,1932259.0,restaurant,2013-11-14,41.851107480190045,-87.61286663254377,2013,Restaurant
154747,1383336,P & P AMERICAN & CHINESE FOOD,2299068.0,restaurant,2013-12-24,41.909323858178425,-87.76097488832582,2013,Restaurant
154749,1375942,ALABAMA'S,2130162.0,restaurant,2013-12-09,41.85925392012611,-87.70560908411284,2013,Restaurant
154750,1375493,TAZA COFFEE & DELI INC.,1718772.0,restaurant,2013-11-15,41.97571673235794,-87.67924580841124,2013,Restaurant
154752,1151897,COCULA RESTAURANT,75052.0,restaurant,2013-12-17,41.79748340867383,-87.7231350726269,2013,Restaurant
154753,1387297,DUNKIN DONUTS / BASKIN ROBINS,1740685.0,restaurant,2013-12-18,41.89483554678372,-87.75574125380165,2013,Restaurant
154755,1345668,DUNKIN DOUNUTS / BASKIN ROBINS,1648477.0,restaurant,2013-11-15,41.883115221384855,-87.62517250873418,2013,Restaurant
154765,1092748,PANDA EXPRESS #299,1801488.0,restaurant,2013-12-16,41.87943624279031,-87.62485435905238,2013,Restaurant
154769,1151885,LOS PANCHO'S RESTAURANT,37209.0,restaurant,2013-12-13,41.77849967060516,-87.72673558708598,2013,Restaurant
154772,1174639,M2,2129595.0,restaurant,2013-11-14,41.878025780212944,-87.64923994797402,2013,Restaurant
154783,1345710,SUBWAY 28330,1474226.0,restaurant,2013-12-03,41.88012466036066,-87.627871944837,2013,Restaurant
154786,1345703,ABN AMRO SVCS - MAIN BANK,20464.0,restaurant,2013-12-02,41.88001645393784,-87.63216230695389,2013,Restaurant
154790,1236102,ARGO TEA,2196485.0,restaurant,2013-11-18,42.008536400868735,-87.91442843927047,2013,Restaurant
154803,1324824,CORNER BAKERY CAFE,1649263.0,restaurant,2013-12-12,41.87858156072147,-87.6385786681057,2013,Restaurant
154808,1376153,ICE BAR,2137234.0,restaurant,2013-12-20,42.008536400868735,-87.91442843927047,2013,Restaurant
154811,1375541,JONES FOOD MART,6373.0,restaurant,2013-11-19,41.71570971493516,-87.62060718990945,2013,Restaurant
154815,1296715,BABA'S FAMOUS STEAK & LEMONADE,1677267.0,restaurant,2013-11-27,41.765990001140594,-87.57378733665412,2013,Restaurant
154823,1372329,PORTILLO'S HOT DOGS,39472.0,restaurant,2013-12-20,41.89333773718407,-87.63124449621304,2013,Restaurant
154825,1324830,JIMMY JOHN'S - WASHINGTON,1578633.0,restaurant,2013-12-16,41.88331955933273,-87.63437965857405,2013,Restaurant
154826,1375811,PAPAS PHILLY STEAK AND FISH,2031842.0,restaurant,2013-12-03,41.75848488763669,-87.60553321970417,2013,Restaurant
154828,1151884,CHUBBY'S CAFE,1767962.0,restaurant,2013-12-13,41.84530355589021,-87.6856074394753,2013,Restaurant
154849,1345743,TOKYO LUNCH BOXES & CATERING,80130.0,restaurant,2013-12-13,41.88807942610461,-87.62404736976374,2013,Restaurant
154861,1324834,MARKET CREATIONS,1885116.0,restaurant,2013-12-17,41.87856015362371,-87.63652387205532,2013,Restaurant
154864,1375467,TIPSY CAKES AND MORE,2293937.0,restaurant,2013-11-15,41.91716625392059,-87.67774727055493,2013,Restaurant
154872,1199206,SUBWAY 25064,2152225.0,restaurant,2013-11-25,41.92506665893317,-87.66633415361996,2013,Restaurant
154873,1106981,PAPA ROMEO'S PIZZA,1947745.0,restaurant,2013-11-15,42.00441034631229,-87.67293928722161,2013,Restaurant
154879,1199213,TOPIC,2121287.0,restaurant,2013-11-26,41.92070478979264,-87.64874573041568,2013,Restaurant
154885,1376196,LAS ESPERANZAS,1447323.0,restaurant,2013-12-27,41.80866777056215,-87.66976890118669,2013,Restaurant
154886,1115145,COCO'S FAMOUS FRIED LOBSTER,1737961.0,restaurant,2013-11-21,41.876320994130005,-87.63087940182764,2013,Restaurant
154898,1393226,STICKY RICE,1515745.0,restaurant,2013-11-21,41.95463110719266,-87.68863080861864,2013,Restaurant
154909,1387276,LU-LU'S INC,3525.0,restaurant,2013-12-02,41.86895287431267,-87.6815754824568,2013,Restaurant
154914,1375548,NOORA CAFE,2294041.0,restaurant,2013-11-15,41.99628182982824,-87.68998284906789,2013,Restaurant
154920,1387266,"EL ORIGINAL CHAVAS TACOS, INC.",1964229.0,restaurant,2013-11-22,41.89056935541284,-87.68557424853155,2013,Restaurant
154932,1375602,SIERRA & SONS ENTERPRISES INC,2298351.0,restaurant,2013-11-22,41.91004427825765,-87.72188751465175,2013,Restaurant
154941,1375951,GREEN CORNER JUICE BAR/COFFEE,2026254.0,restaurant,2013-12-09,41.91613261213558,-87.67773171836664,2013,Restaurant
154942,1296705,J & J FISH,1904647.0,restaurant,2013-11-21,41.735464895228944,-87.55153423073834,2013,Restaurant
154945,1320003,STEAK HOUSE & GRILL INC.,2142194.0,restaurant,2013-12-30,41.7795132569961,-87.65351329474628,2013,Restaurant
154948,1375469,STARBUCKS COFFEE #216,23031.0,restaurant,2013-11-15,41.89334129631224,-87.61758915120579,2013,Restaurant
154950,1151851,WHITE CASTLE #24,1676601.0,restaurant,2013-12-05,41.749014401931134,-87.72204098184092,2013,Restaurant
154954,1375598,LA ESPERANZA DEL MANANA,2093922.0,restaurant,2013-11-22,41.79378047274624,-87.69496027657335,2013,Restaurant
154964,1319911,STARBUCKS COFFEE #2827,2093906.0,restaurant,2013-11-18,41.79517545018063,-87.59660147733702,2013,Restaurant
154967,1228350,DIM SUM HOUSE,1515212.0,restaurant,2013-12-06,41.845249387169865,-87.6319673067982,2013,Restaurant
154969,1343584,J J FISH & CHICKEN,2157666.0,restaurant,2013-12-05,41.85166507852771,-87.72421179634328,2013,Restaurant
154971,1376020,THE POPCORN ASYLUM,2164269.0,restaurant,2013-12-12,41.93317720763094,-87.65936357447276,2013,Restaurant
154980,1383238,STARBUCKS COFFEE #9426,1573094.0,restaurant,2013-11-18,41.89176977820589,-87.65860461424934,2013,Restaurant
154983,1345693,CHICAGO KERNEL,2103776.0,restaurant,2013-11-25,41.88416745447802,-87.6226033725251,2013,Restaurant
154986,1345768,JAFFA BAGELS,2278918.0,restaurant,2013-12-27,41.88637740620821,-87.62438167043969,2013,Restaurant
154988,1228371,J J FISH,1276007.0,restaurant,2013-12-11,41.796234875219376,-87.63040492438661,2013,Restaurant
155000,1345680,BILLY GOAT TAVERN & GRILL,2204143.0,restaurant,2013-11-21,41.8858384517594,-87.62584164558255,2013,Restaurant
155005,1319983,CHAN'S KITCHEN II,59122.0,restaurant,2013-12-19,41.76495794686765,-87.62474780054721,2013,Restaurant
155006,1375915,ROYAL INDIAN GRILL INC.,2299016.0,restaurant,2013-12-09,41.940634346439296,-87.65105735655327,2013,Restaurant
155018,1151837,URUAPAN,3881.0,restaurant,2013-12-02,41.85763234806772,-87.6697745345797,2013,Restaurant
155023,1376159,JACKSON FISH & CHICKEN,2240653.0,restaurant,2013-12-20,41.87766464568878,-87.68619648268242,2013,Restaurant
155026,1376024,LE'S PHO,2289027.0,restaurant,2013-12-12,41.97221355699091,-87.6596091001073,2013,Restaurant
155027,1372316,BABA PITA PALACE,2088256.0,restaurant,2013-12-16,41.89666241521221,-87.63710138046027,2013,Restaurant
155028,1199253,PIZZERIA DA NELLA,1473886.0,restaurant,2013-12-13,41.92508397236136,-87.66504399327398,2013,Restaurant
155030,1345763,CRYSTAL BALLROOM/PLAZA BALLROOM,1925.0,restaurant,2013-12-20,41.88799988734853,-87.62256513255957,2013,Restaurant
155034,1372323,CAFE 353,1986998.0,restaurant,2013-12-18,41.88896195675864,-87.63090677238614,2013,Restaurant
155037,1376047,BISTRONOMIC,1718928.0,restaurant,2013-12-13,41.89790609076628,-87.62703233324655,2013,Restaurant
155041,1376021,"HOMEMADE PIZZA COMPANY, L.L.C.",2094200.0,restaurant,2013-12-12,41.89245644738031,-87.62226362586607,2013,Restaurant
155045,1228372,AL'S BEEF,1974703.0,restaurant,2013-12-11,41.79525244878496,-87.63037632698764,2013,Restaurant
155046,1199231,CHARTWELLS,1943637.0,restaurant,2013-12-05,41.9236184097586,-87.65645723548145,2013,Restaurant
155065,1305462,TAQUERIA EL BAJIO,2294091.0,restaurant,2013-12-04,41.79378362283587,-87.69477733434333,2013,Restaurant
155074,1115198,ARTISTS CAFE,2183402.0,restaurant,2013-12-23,41.86775146722659,-87.62597953025887,2013,Restaurant
155077,1383322,La Isla Pequena,2137994.0,restaurant,2013-12-18,41.90973594998965,-87.72927346612649,2013,Restaurant
155078,1358234,RUTH KAPLAN,3634.0,restaurant,2013-12-02,41.91746648068976,-87.68681623688606,2013,Restaurant
155079,1324837,McDONALD'S,1969969.0,restaurant,2013-12-18,41.88309100589108,-87.63664592832622,2013,Restaurant
155080,1375908,JOSEPHINE'S COOKIN',25152.0,restaurant,2013-12-06,41.75125343801801,-87.6134891037603,2013,Restaurant
155094,1345744,I LOVE SUSHI,1908389.0,restaurant,2013-12-13,41.886567370886944,-87.62438467059714,2013,Restaurant
155105,1320006,R N FOOD WINE & SPIRIT INC,2204132.0,restaurant,2013-12-30,41.77425214886086,-87.64449654993336,2013,Restaurant
155106,1115178,DUNKIN DONUTS BASKIN ROBBINS,1676715.0,restaurant,2013-12-10,41.87434258001862,-87.62614177042674,2013,Restaurant
155107,1375683,Kentucky Fried Chicken,1124035.0,restaurant,2013-11-26,41.703900878937965,-87.68139649760822,2013,Restaurant
155108,1391352,ARMAND'S PIZZERIA,2299529.0,restaurant,2013-12-24,42.00258143308993,-87.81607036079886,2013,Restaurant
155114,1375433,POP-N-PIZZA,8372.0,restaurant,2013-11-14,41.78594076910954,-87.71572304161569,2013,Restaurant
155115,1389261,SOL DE MEXICO TIERRA AZTECA,1800682.0,restaurant,2013-11-22,41.93575126195393,-87.74691044444539,2013,Restaurant
155116,1228319,KENTUCKY FRIED CHICKEN 521050,1816823.0,restaurant,2013-11-15,41.83119240873837,-87.61928919948132,2013,Restaurant
155118,1324792,ARAMARK CORPORATION,1169489.0,restaurant,2013-11-15,41.88326585294293,-87.63876082126886,2013,Restaurant
155125,1376073,LITTLE CAESAR PIZZA,1869514.0,restaurant,2013-12-16,41.909954191939946,-87.71090487898776,2013,Restaurant
155133,1376141,GARDEN FAST FOOD,1228289.0,restaurant,2013-12-19,41.6565692144359,-87.59739544848509,2013,Restaurant
155134,1383253,HONEY BEAR HAM CO,26357.0,restaurant,2013-11-22,41.891193484441246,-87.65705497652716,2013,Restaurant
155136,1375788,LAS TRES CAMPANITAS #2,2033134.0,restaurant,2013-12-03,41.844515940243554,-87.71286845086306,2013,Restaurant
155138,1389253,DI'S DEN,526.0,restaurant,2013-11-20,41.95343828711805,-87.7547543279566,2013,Restaurant
155142,1375706,STARBUCKS COFFEE #2373,23120.0,restaurant,2013-11-27,41.89490581589443,-87.62052044802762,2013,Restaurant
155156,1329659,42 grams,2299137.0,restaurant,2013-12-12,41.96695669886095,-87.65863147315861,2013,Restaurant
155180,1343571,ALEX DELI,2134636.0,restaurant,2013-11-20,41.84646793281754,-87.7015662495669,2013,Restaurant
155188,1383347,LA GUERA RESTAURANT INC.,2293319.0,restaurant,2013-12-27,41.91704981897573,-87.72707606104667,2013,Restaurant
155191,1393244,KIMBERLY SUSHI,78384.0,restaurant,2013-12-06,41.96846702189827,-87.69322013455337,2013,Restaurant
155197,1375635,"TAQUERIA LA HACIENDITA, INC.",2298254.0,restaurant,2013-11-25,41.785289819046255,-87.72308992153914,2013,Restaurant
155205,1228369,FONSECA NUTRISION,2163553.0,restaurant,2013-12-10,41.80852106777786,-87.66295769294955,2013,Restaurant
155209,1110412,POCKETS,1947743.0,restaurant,2013-12-27,41.89245401445151,-87.622415216598,2013,Restaurant
155213,1375614,EXPRESS CAFE,2298288.0,restaurant,2013-11-22,41.93199056575183,-87.71957718093888,2013,Restaurant
155214,1375820,HONG KONG RESTAURANT,2298606.0,restaurant,2013-12-04,42.008279359891695,-87.67394733296669,2013,Restaurant
155223,1106972,THAI,77033.0,restaurant,2013-11-13,41.943316391094,-87.67943319466616,2013,Restaurant
155228,1199189,FAIRWAYS,2196367.0,restaurant,2013-11-14,41.917944955168295,-87.65687914281855,2013,Restaurant
155231,1375658,HONEYBAKED HAM AND CAFE,2060329.0,restaurant,2013-11-25,41.93289126306049,-87.66826723143315,2013,Restaurant
155239,1395215,TAQUERIA SAN JUANITO,2068944.0,restaurant,2013-12-30,41.96711477143258,-87.70857709253173,2013,Restaurant
155240,1199198,COPPER VINE,2252319.0,restaurant,2013-11-21,41.91775186077485,-87.64863789225483,2013,Restaurant
155241,1345734,CHICK-FIL-A STATE & LAKE,2246948.0,restaurant,2013-12-11,41.88527795660976,-87.62778287517119,2013,Restaurant
155254,1319950,JUST TURKEY RESTAURANT,2017191.0,restaurant,2013-12-05,41.81525376681689,-87.60653032909327,2013,Restaurant
155275,1372321,J. ROCCO ITALIAN TABLE & BAR,2222196.0,restaurant,2013-12-17,41.8963470152103,-87.6310936533011,2013,Restaurant
155277,1375845,POLLO FELIZ,2245731.0,restaurant,2013-12-05,41.8446448118455,-87.70349685551031,2013,Restaurant
155279,1296713,ROWE FOOD HOLDINGS LLC,2124498.0,restaurant,2013-11-27,41.73671470606919,-87.58506135103994,2013,Restaurant
155288,1387305,GREEK ISLANDS RESTAURANT,6021.0,restaurant,2013-12-23,41.87918309269135,-87.64742623446782,2013,Restaurant
155292,1375782,BOULEVARD DELI & LIQUOR,2192996.0,restaurant,2013-12-03,41.91028581429125,-87.70137268454522,2013,Restaurant
155297,1391333,MY FIT FOODS,2229578.0,restaurant,2013-12-18,41.91105208254684,-87.63393075255847,2013,Restaurant
155300,1375517,MADISON SUBS & GYROS,2294386.0,restaurant,2013-11-18,41.75842568164409,-87.60798241053473,2013,Restaurant
155301,1151863,NANA,1960118.0,restaurant,2013-12-09,41.83442187728667,-87.64604730385813,2013,Restaurant
155305,1375509,THE SHRIMP SHACK,1939047.0,restaurant,2013-11-18,41.7921389422001,-87.78674847587374,2013,Restaurant
155318,1092733,JAIMITOS BURRITOS,47512.0,restaurant,2013-12-06,41.91352238684326,-87.65294009283627,2013,Restaurant
155321,1375871,"GREAT LAKES FISH & CHICKEN, INC.",1488676.0,restaurant,2013-12-05,41.85907243743452,-87.71618364678199,2013,Restaurant
155324,1236106,CANDYALITY,2294108.0,restaurant,2013-11-20,41.94996659511004,-87.66395007499032,2013,Restaurant
155333,1319977,UNCLE J'S,2289963.0,restaurant,2013-12-16,41.809537172956766,-87.61372042275264,2013,Restaurant
155336,1375802,LA BOMBA RESTAURANT,2231777.0,restaurant,2013-12-03,41.91728108852338,-87.70785660455108,2013,Restaurant
155338,1375582,SAN SOO GAB SAN CORP,23269.0,restaurant,2013-11-21,41.9772862709721,-87.68905760864439,2013,Restaurant
155346,1375862,SULKO'S RESTURANT,1124448.0,restaurant,2013-12-05,41.91704981897573,-87.72707606104667,2013,Restaurant
155348,1345726,PINKYS RESTAURANT,1873531.0,restaurant,2013-12-09,41.88458626715456,-87.63101044588599,2013,Restaurant
155355,1115160,TARGET STORE # 1889,1515016.0,restaurant,2013-11-27,41.86757101543305,-87.63058647386143,2013,Restaurant
155365,1375816,TUTTI FRUITTI COFFEE SHOP,2152594.0,restaurant,2013-12-04,41.93853353183391,-87.76108915517106,2013,Restaurant
155366,1389257,#1 CHOP SUEY,1970042.0,restaurant,2013-11-21,41.9534434499878,-87.73576333403281,2013,Restaurant
155380,1372337,HYATT PLACE CHICAGO DOWNTOWN RIVER NORTH,2189091.0,restaurant,2013-12-24,41.89093839690263,-87.63059033456759,2013,Restaurant
155391,1319922,TRAVIS GRILL,2102963.0,restaurant,2013-11-21,41.76922544086365,-87.61559282449248,2013,Restaurant
155413,1391357,MIKE GEORGE'S COMPLETE FITNESS,57645.0,restaurant,2013-12-30,41.8930159514934,-87.63877166686338,2013,Restaurant
155414,1319944,PEARL'S PLACE,1948280.0,restaurant,2013-12-03,41.82364931821311,-87.62302379163799,2013,Restaurant
155418,1376125,WHITE CASTLE #58,28487.0,restaurant,2013-12-19,41.70715686160742,-87.6200704780511,2013,Restaurant
155420,1375794,THE MID-AMERICA CLUB,1801753.0,restaurant,2013-12-03,41.8846320757672,-87.6222479910888,2013,Restaurant
155424,1376014,KARAVITES REST INC,11136.0,restaurant,2013-12-12,41.97628305591404,-87.65514776882976,2013,Restaurant
155425,1376184,STATE FISH AND CHICKEN,2163736.0,restaurant,2013-12-26,41.70727358161855,-87.62358592336454,2013,Restaurant
155429,1375971,"BABA'S KITCHEN, FISH AND CHICKEN, INC.",1939132.0,restaurant,2013-12-10,41.91015298857271,-87.71270864153382,2013,Restaurant
155434,1115149,DUNKIN' DONUTS,1044813.0,restaurant,2013-11-22,41.87675210714043,-87.63313433761056,2013,Restaurant
155443,1376048,AJE CAFE,2109080.0,restaurant,2013-12-13,41.93591438057569,-87.64758150382741,2013,Restaurant
155444,1345669,STARBUCKS COOFEE #279,23077.0,restaurant,2013-11-15,41.88584899521962,-87.62466255499672,2013,Restaurant
155453,1228396,CHINESE KITCHEN AND SUSHI,2185108.0,restaurant,2013-12-19,41.83827010545886,-87.63746078062489,2013,Restaurant
155454,1383235,DAMATO BAKERY #1,1768530.0,restaurant,2013-11-15,41.89120813979677,-87.65573434273385,2013,Restaurant
155459,1376116,BIG AL'S RESTAURANT,2299483.0,restaurant,2013-12-18,41.7962097696133,-87.70348643149426,2013,Restaurant
155461,1389266,NUTRI-SALUDABLE,2109208.0,restaurant,2013-11-25,41.93853185753577,-87.76124179562757,2013,Restaurant
155469,1393259,CIAO BELLA CAFE,2252644.0,restaurant,2013-12-17,42.00558686485114,-87.66107732040031,2013,Restaurant
155473,1389299,CHICAGO'S PIZZA,1696176.0,restaurant,2013-12-26,41.95359543105369,-87.74147723471926,2013,Restaurant
155475,1345683,WHICH WICH,2068951.0,restaurant,2013-11-21,41.88342263701488,-87.62802165207536,2013,Restaurant
155476,1375539,THE BOBA TEAHOUSE,2253085.0,restaurant,2013-11-19,41.97340592064704,-87.65601157540186,2013,Restaurant
155477,1329652,JOE'S  JJJ  DAWG  RANCH,2133704.0,restaurant,2013-12-10,41.99501027704687,-87.69969962161599,2013,Restaurant
155493,1372308,HO CHOY,2138051.0,restaurant,2013-12-12,41.89227263383808,-87.63423010025919,2013,Restaurant
155494,1345770,JAMBA JUICE COMPANY,2083870.0,restaurant,2013-12-27,41.87800606262711,-87.63402203216754,2013,Restaurant
155498,1345756,ROBINSON'S N0 1 RIBS,2189369.0,restaurant,2013-12-18,41.88601805296936,-87.63083645691519,2013,Restaurant
155502,1375498,VILLA ROSA PIZZA ON ARCHER,2136944.0,restaurant,2013-11-18,41.7965179465511,-87.75791779651013,2013,Restaurant
155503,1110414,DOWNTOWN DOGS,41329.0,restaurant,2013-12-30,41.89685832072183,-87.62582920151347,2013,Restaurant
155507,1393216,BOWMANS,1197306.0,restaurant,2013-11-14,41.96123477031228,-87.68397223026997,2013,Restaurant
155508,1329625,SPIKE'S SANDWICH SHOP,2232334.0,restaurant,2013-11-21,41.94521257883548,-87.82372778017668,2013,Restaurant
155510,1329649,IRVING PARK LANES,1261.0,restaurant,2013-12-09,41.95325037760734,-87.76982734409482,2013,Restaurant
155513,1343578,MCDONALDS #4655,33146.0,restaurant,2013-12-03,41.84424943359247,-87.73262060501526,2013,Restaurant
155523,1375636,STARBUCKS COFFEE #2378,23124.0,restaurant,2013-11-25,41.964622923210825,-87.68577071779451,2013,Restaurant
155527,1375427,EAT FIT,2049198.0,restaurant,2013-11-14,41.86790450001522,-87.62728574017743,2013,Restaurant
155532,1391277,BARNES & NOBLE BOOKSELLERS#2922,68790.0,restaurant,2013-11-22,41.90274616662431,-87.62861376327002,2013,Restaurant
155535,1375828,MCDONALD'S RESTAURANT,51206.0,restaurant,2013-12-04,42.008536400868735,-87.91442843927047,2013,Restaurant
155541,1387260,THE OGDEN,1820597.0,restaurant,2013-11-20,41.879430511002965,-87.66831238232602,2013,Restaurant
155543,1199196,POTBELLY SANDWICH  WORKS,1913925.0,restaurant,2013-11-15,41.93252953939086,-87.6537938531344,2013,Restaurant
155548,1199224,DERBY,2129321.0,restaurant,2013-12-04,41.92176243663676,-87.65932631562724,2013,Restaurant
155549,1236109,CHILI'S T - 3,34190.0,restaurant,2013-11-21,42.008536400868735,-87.91442843927047,2013,Restaurant
155550,1389271,THE BURRITO KING,2113394.0,restaurant,2013-11-27,41.93894663361085,-87.74608562455207,2013,Restaurant
155559,1228368,KING FISH & CHICKEN,2124645.0,restaurant,2013-12-10,41.80135403642499,-87.65407289879077,2013,Restaurant
155562,1345704,SUBWAY #51581,2093683.0,restaurant,2013-12-02,41.885638980759765,-87.6290500154005,2013,Restaurant
155567,1389295,LA VILLA,2196970.0,restaurant,2013-12-24,41.94738145671126,-87.72757688336624,2013,Restaurant
155570,1199207,HOMESLYCE WHEEL HOUSE,2162749.0,restaurant,2013-11-25,41.921866539026375,-87.65242305270903,2013,Restaurant
155573,1375822,MCDONALD'S CORPORATION,1140128.0,restaurant,2013-12-04,42.008536400868735,-87.91442843927047,2013,Restaurant
155576,1228295,RYBA'S FUDGE SHOP,1842335.0,restaurant,2013-11-14,41.85119983657814,-87.61881948421137,2013,Restaurant
155579,1391326,CHIPOTLE MEXICAN GRILL,2017906.0,restaurant,2013-12-17,41.91126962078246,-87.6351678448219,2013,Restaurant
155584,1376136,ETHIOPIAN DIAMOND RESTAURANT,2184160.0,restaurant,2013-12-19,41.99288644861022,-87.66050314598486,2013,Restaurant
155587,1375932,JIMMY JAMM SWEET POTATO PIES ETC,1816453.0,restaurant,2013-12-09,41.72123153024442,-87.6693318070022,2013,Restaurant
155590,1376011,FIZZ BAR & GRILL,55325.0,restaurant,2013-12-12,41.94026958072296,-87.66923760732696,2013,Restaurant
155602,1376104,"AZUCAR, NIEVES AND CAFE CORPORATION",2115244.0,restaurant,2013-12-18,41.84243106360601,-87.7155297508646,2013,Restaurant
155604,1296723,QUIZNOS #12552,1932522.0,restaurant,2013-12-10,41.74416023099397,-87.5852284872351,2013,Restaurant
155611,1375650,TRE SOLDI,2198202.0,restaurant,2013-11-25,41.892678418310624,-87.62211888192721,2013,Restaurant
155616,1199238,IRMCO PROPERTIES & MANAGEMENT CORPORATION,1768085.0,restaurant,2013-12-09,41.92390845485592,-87.63666316560742,2013,Restaurant
155617,1296709,SEE THRU CHINESE KITCHEN INC,1302284.0,restaurant,2013-11-25,41.77329289585066,-87.58644236831432,2013,Restaurant
155619,1199219,AQUITAINE,1874129.0,restaurant,2013-12-02,41.9224779133742,-87.64439904705058,2013,Restaurant
155620,1375886,PURE NATURAL BLENDS,2148105.0,restaurant,2013-12-05,41.93347403945103,-87.64559929166136,2013,Restaurant
155625,1324817,XANDO COFFEE & BAR / COSI SANDWICH BAR,62.0,restaurant,2013-12-09,41.88331785985083,-87.63476909461744,2013,Restaurant
155626,1375530,PALETERIA Y VEVERIA BOMBON CO,2284006.0,restaurant,2013-11-19,41.92412328275852,-87.76339011363099,2013,Restaurant
155634,1345733,STETSON'S,1932.0,restaurant,2013-12-10,41.88799988734853,-87.62256513255957,2013,Restaurant
155642,1324822,METRO DELI,44843.0,restaurant,2013-12-10,41.878961784808446,-87.63973261184394,2013,Restaurant
155643,1375696,RED LINE TAP,2177814.0,restaurant,2013-11-27,42.00936035804877,-87.66637743537967,2013,Restaurant
155645,1376053,BLAZE IL STORE 1 LLC.,2288724.0,restaurant,2013-12-13,41.9398082842482,-87.65360564232644,2013,Restaurant
155669,1375686,RENAISSANCE CHICAGO O'HARE HOTEL,2278126.0,restaurant,2013-11-26,41.98118072487806,-87.83916755770461,2013,Restaurant
155681,1228362,SABRINA SUB,1225999.0,restaurant,2013-12-09,41.80155641340045,-87.65539595872276,2013,Restaurant
155683,1376187,MERMAID FISH & CHICKEN,2298688.0,restaurant,2013-12-27,41.90230474661144,-87.76065826255068,2013,Restaurant
155687,1375949,J STORY,2278723.0,restaurant,2013-12-09,41.96134125581568,-87.70136659482124,2013,Restaurant
155688,1199261,DELI BOUTIQUE INC.,1617724.0,restaurant,2013-12-17,41.924249820611024,-87.63981593894823,2013,Restaurant
155691,1375856,GOLD COAST DOGS,1884293.0,restaurant,2013-12-05,42.008536400868735,-87.91442843927047,2013,Restaurant
155696,1367398,TOOLUS FAST FOOD,2146600.0,restaurant,2013-11-14,41.9020536410168,-87.76391484216616,2013,Restaurant
155700,1383315,COLUMBUS' CURRY,2299427.0,restaurant,2013-12-16,41.906629896738416,-87.67137623922982,2013,Restaurant
155701,1375728,FIRE N ICE,2065205.0,restaurant,2013-11-29,41.76568232706353,-87.62201578987336,2013,Restaurant
155702,1372303,BEATRIX,2234215.0,restaurant,2013-12-06,41.89151603889098,-87.63097642048605,2013,Restaurant
155703,1345695,MCDONALD'S #6491,2009449.0,restaurant,2013-11-25,41.88459084697665,-87.62923601171076,2013,Restaurant
155707,1296731,MARZEYA BAKERY,10853.0,restaurant,2013-12-13,41.733410005055205,-87.55148453485408,2013,Restaurant
155711,1393255,MONASTERO'S  RISTORANTE,39206.0,restaurant banquet halls,2013-12-13,41.99713414611455,-87.72766362171252,2013,Restaurant
155720,1199216,JAM N' HONEY,2087629.0,restaurant,2013-12-02,41.92184919047451,-87.65343022919154,2013,Restaurant
155729,1072684,5 STAR CHICKEN & FISH,1544493.0,restaurant,2013-12-05,41.75032238740821,-87.64418240605828,2013,Restaurant
155737,1199273,THE BEER BISTRO NORTH,1937764.0,restaurant,2013-12-20,41.92509838922352,-87.66399095186429,2013,Restaurant
155742,1367410,SAY CHEEZZZZZ,2103547.0,restaurant,2013-11-21,41.873333685165896,-87.72532900450999,2013,Restaurant
155743,1375763,Kick Stand,2026905.0,restaurant,2013-12-02,41.94007685471759,-87.65029486799551,2013,Restaurant
155763,1372328,PROTEIN BAR,2252786.0,restaurant,2013-12-19,41.8880742810662,-87.63495520292739,2013,Restaurant
155767,1375755,Saugatuck Coffee Company,1959800.0,restaurant,2013-12-02,41.94312984017461,-87.64951168839137,2013,Restaurant
155771,1296691,C & G RESTAURANT,51418.0,restaurant,2013-11-18,41.72814212801288,-87.55105705082681,2013,Restaurant
155779,1199218,COSI,1698035.0,restaurant,2013-12-02,41.92199843198668,-87.63845794194215,2013,Restaurant
155781,1072681,MAXWELL STREET EXPRESS,1647725.0,restaurant,2013-12-03,41.7360797687383,-87.65085877776568,2013,Restaurant
155792,1199202,RUSTIC HOUSE,2083397.0,restaurant,2013-11-22,41.91786413469821,-87.64834854789532,2013,Restaurant
155798,1372275,LOU MALNATI'S PIZZERIA,2069345.0,restaurant,2013-11-15,41.902393823105335,-87.62846892422814,2013,Restaurant
155805,1391351,GT's Fast Food,2014164.0,restaurant,2013-12-24,41.97240585532906,-87.72829150056414,2013,Restaurant
155809,1151829,"KRISTOFFER'S CAFE & BAKERY, INC.",1879019.0,restaurant,2013-11-21,41.85818385686724,-87.64650479620137,2013,Restaurant
155812,1391325,SUBWAY  5183,1574396.0,restaurant,2013-12-17,41.91101314874418,-87.63801771166592,2013,Restaurant
155815,1383255,HOLLYWOOD GRILL,44712.0,restaurant,2013-11-25,41.9105196352962,-87.66774968632781,2013,Restaurant
155816,1383275,GRATTO PIZZERIA N DELI,2093365.0,restaurant,2013-12-02,41.90612806012727,-87.67719765262262,2013,Restaurant
155819,1345741,HOTEL MONACO,2293081.0,restaurant,2013-12-12,41.88642433256405,-87.62616828170881,2013,Restaurant
155823,1345716,CYRANO'S CAFE ON THE RIVERWALK,1898969.0,restaurant,2013-12-04,41.88820137043228,-87.6209705587203,2013,Restaurant
155824,1375594,"J&K FAST FOOD GROUP, INC",2119751.0,restaurant,2013-11-21,41.6781695655262,-87.62036636694874,2013,Restaurant
155827,1375542,EATALY,2262497.0,restaurant,2013-11-19,41.89239475098296,-87.62641533543558,2013,Restaurant
155847,1387258,Jason Wok,2021498.0,restaurant,2013-11-18,41.86878383901946,-87.68624468790969,2013,Restaurant
155851,1115155,HOTEL  BLAKE,2031682.0,restaurant,2013-11-25,41.87556910960446,-87.62938322586831,2013,Restaurant
155854,1343590,CREOLE SOUL,2294065.0,restaurant,2013-12-16,41.86561582494729,-87.77078263795666,2013,Restaurant
155860,1151849,MAXWELL'S ON OGDEN,2003406.0,restaurant,2013-12-04,41.86311983548511,-87.6909893296994,2013,Restaurant
155863,1389298,VINCE'S THE PIZZA PEOPLE,1931932.0,restaurant,2013-12-26,41.959585243532565,-87.75339464399,2013,Restaurant
155866,1110410,SILVER SPOON RESTAURANT,1514664.0,restaurant,2013-12-13,41.89532082029217,-87.62562009892783,2013,Restaurant
155877,1367407,JABRO'S ITALIAN ICE CORNER,2043341.0,restaurant,2013-11-14,41.89465058959152,-87.7719592356378,2013,Restaurant
155879,1343570,PAPA SANTIAGO PIZZARIA & TAQUERIA,2073905.0,restaurant,2013-11-20,41.84445514675606,-87.70242244298144,2013,Restaurant
155881,1329621,TORTILLA SOUP,78989.0,restaurant,2013-11-20,41.94921947071411,-87.80699727423111,2013,Restaurant
155882,1387300,ANNA'S ASIAN BISTRO,2104140.0,restaurant,2013-12-19,41.88554481080602,-87.64805391979013,2013,Restaurant
155886,1375604,PONCE,1905309.0,restaurant,2013-11-22,41.92449956081487,-87.7346529288684,2013,Restaurant
155887,1199268,SARPINO'S PIZZERIA,1889078.0,restaurant,2013-12-18,41.9324618093209,-87.65783274822834,2013,Restaurant
155888,1383252,BUTTERFLY,1618925.0,restaurant,2013-11-22,41.89119527078575,-87.65688615805686,2013,Restaurant
155893,1174643,BINNY'S,1820101.0,restaurant,2013-11-15,41.86795122941471,-87.64236163228834,2013,Restaurant
155895,1228322,NEW CHINATOWN RESTAURANT,2203538.0,restaurant,2013-11-15,41.852737087892734,-87.63236961423742,2013,Restaurant
155897,1375643,"WOLFGANG PUCK, T-3",34173.0,restaurant,2013-11-25,42.008536400868735,-87.91442843927047,2013,Restaurant
155903,1375572,PECKING ORDER,21943.0,restaurant,2013-11-20,41.96215972005008,-87.6662185738834,2013,Restaurant
155906,1375640,THE NORWOOD RESTAURANT,61913.0,restaurant,2013-11-25,41.99247685596986,-87.79900315043635,2013,Restaurant
155908,1376198,ST REST COUNTRY KITCHEN,11696.0,restaurant,2013-12-27,41.73652030530036,-87.60618644626399,2013,Restaurant
155932,1383250,JOEY'S SHRIMP HOUSE,2068762.0,restaurant,2013-11-21,41.90766195597092,-87.68729713401048,2013,Restaurant
155944,1228294,MC DONALDS,60108.0,restaurant,2013-11-14,41.851107480190045,-87.61286663254377,2013,Restaurant
155945,1375760,STARBUCKS COFFEE #2207,23061.0,restaurant,2013-12-02,41.9398567037315,-87.65077339093305,2013,Restaurant
155946,1376042,EL AUTHENTICO 5 DE MAYO,2137563.0,restaurant,2013-12-13,41.940634346439296,-87.65105735655327,2013,Restaurant
155952,1375875,DANNY'S PIZZA,11648.0,restaurant,2013-12-05,41.794849958047614,-87.76728035628865,2013,Restaurant
155953,1383314,SWIM CAFE,1598266.0,restaurant,2013-12-16,41.89605275011061,-87.66161251045357,2013,Restaurant
155968,1106986,RUMIJA CULTURAL CENTER,42510.0,restaurant,2013-11-19,41.991174458092,-87.672653267545,2013,Restaurant
155980,1115188,PANDA EXPRESS,2125299.0,restaurant,2013-12-17,41.87534753894505,-87.62747294785208,2013,Restaurant
155989,1391353,Armand's Pizzeria,2089142.0,restaurant,2013-12-24,42.00258143308993,-87.81607036079886,2013,Restaurant
155991,1375425,ASIAN AVENUE,1682304.0,restaurant,2013-11-14,41.93979191875949,-87.66969214409387,2013,Restaurant
155992,1383300,Forever Yogurt,2299250.0,restaurant,2013-12-10,41.91061792347087,-87.67610192061127,2013,Restaurant
155993,1391345,HUNAN SPRING,2083998.0,restaurant,2013-12-23,41.97704126868173,-87.75442838864393,2013,Restaurant
155999,1375854,7-ELEVEN #36718A,2283103.0,restaurant,2013-12-05,41.93932519249527,-87.71746162505318,2013,Restaurant
156000,1372286,CELESTE,2197131.0,restaurant,2013-11-21,41.88990442842049,-87.63159248856867,2013,Restaurant
156001,1305463,POLLOS DON NENY,2120016.0,restaurant,2013-12-04,41.79378362283587,-87.69477733434333,2013,Restaurant
156007,1383348,DUNKIN DONUTS / BASKIN ROBBINS,2088178.0,restaurant,2013-12-30,41.90922966250569,-87.76862484425037,2013,Restaurant
156020,1319973,63RD AND DREXEL MOBIL,1817156.0,restaurant,2013-12-13,41.78054757392741,-87.60393831024643,2013,Restaurant
156021,1345723,SIDEBAR,1618719.0,restaurant,2013-12-06,41.886308567767294,-87.63231875970524,2013,Restaurant
156022,1383345,INTELLIGENTSIA COFFEE AND TEA,2294369.0,restaurant,2013-12-27,41.90323156427655,-87.66789341196245,2013,Restaurant
156026,1319921,DIAMOND JUBILEE INC,1647985.0,restaurant,2013-11-21,41.79940700764112,-87.59128321240976,2013,Restaurant
156034,1199260,CENACLE RETIREMENT,1276889.0,restaurant,2013-12-17,41.925452433319336,-87.6419562075969,2013,Restaurant
156041,1391294,PANANG NOODLE & RICE,81137.0,restaurant,2013-12-02,41.896701140158896,-87.63139316051294,2013,Restaurant
156042,1345765,RONNY'S ORIGINAL STEAK HOUSE,1069683.0,restaurant,2013-12-24,41.88458626715456,-87.63101044588599,2013,Restaurant
156051,1383286,SUNRISE FIT CLUB,2147797.0,restaurant,2013-12-05,41.90004341033534,-87.66754873288997,2013,Restaurant
156054,1199262,SUSHI PARA TOO,1579503.0,restaurant,2013-12-17,41.92341377248651,-87.63931316695619,2013,Restaurant
156058,1389265,Sol De Mexico Tierra Azteca,2022109.0,restaurant,2013-11-22,41.93575126195393,-87.74691044444539,2013,Restaurant
156070,1375735,MARKLAND-HUBBARD GOURMET PROVISIONS,2189351.0,restaurant,2013-12-02,41.71378227082145,-87.6669107379025,2013,Restaurant
156082,1387281,LITTLE MEL'S HOT DOG,1573071.0,restaurant,2013-12-05,41.92184838445843,-87.6971781911683,2013,Restaurant
156085,1375841,CHOP SUEY KING,1272242.0,restaurant,2013-12-04,41.93808076965392,-87.74671198344375,2013,Restaurant
156090,1376191,VALLARTA,69963.0,restaurant,2013-12-24,41.78630054209791,-87.6934454970915,2013,Restaurant
156102,1376063,"TASTY BEEF & SUB,INC.",2136953.0,restaurant,2013-12-16,41.89531791434095,-87.71981900904049,2013,Restaurant
156107,1199263,Sprout,1980806.0,restaurant,2013-12-17,41.92509719836959,-87.6640775568901,2013,Restaurant
156110,1199229,HOTDOGERIA,2084285.0,restaurant,2013-12-05,41.91809714268833,-87.64658724128225,2013,Restaurant
156111,1383261,Belly Shack II,2294005.0,restaurant,2013-11-26,41.91618570053351,-87.68752368767451,2013,Restaurant
156115,1296696,SAYA'S SOUL FOOD RESTAURANT,2294173.0,restaurant,2013-11-19,41.75141673923165,-87.58236673117086,2013,Restaurant
156118,1319918,SAMBO'S,1817403.0,restaurant,2013-11-19,41.76570495037069,-87.61996641028227,2013,Restaurant
156121,1375620,MASTRO'S STEAKHOUSE,2026743.0,restaurant,2013-11-22,41.8916012847535,-87.62979670523087,2013,Restaurant
156125,1375654,SHARKS FISH TONY STEAK,1942358.0,restaurant,2013-11-25,41.69224436617783,-87.64262037785443,2013,Restaurant
156130,1375870,CARNICERIA&FRUTERIA EL MITOTE,49322.0,restaurant,2013-12-05,41.93881951468354,-87.73943380281585,2013,Restaurant
156136,1375506,MARGIE'S CANDIES,2294432.0,restaurant,2013-11-18,41.91752758522411,-87.68755598295824,2013,Restaurant
156150,1296721,MCDONALDS RESTAURANT,64964.0,restaurant,2013-12-09,41.751633598975936,-87.56516065093352,2013,Restaurant
156162,1375520,"HALSTED SHELL, DUNKIN DONUTS, MR SUB",1330095.0,restaurant,2013-11-19,41.71580477012766,-87.64320825324427,2013,Restaurant
156173,1345730,HYATT REGENCY,2192834.0,restaurant,2013-12-10,41.88799988734853,-87.62256513255957,2013,Restaurant
156178,1391270,"ELEMENTS, INC.",1843909.0,restaurant,2013-11-21,41.89599326013868,-87.63403818800589,2013,Restaurant
156198,1305484,PEGASUS ON THE FLY,1142106.0,restaurant,2013-12-20,41.789329323265385,-87.74164564419637,2013,Restaurant
156202,1375608,SHARKS FISH AND CHICKEN,1888984.0,restaurant,2013-11-22,41.780331089294336,-87.6446543895969,2013,Restaurant
156207,1376090,ZUZU WRAPS INC,2256140.0,restaurant,2013-12-17,41.9685605606405,-87.70853637445603,2013,Restaurant
156208,1199270,Nori Chicago,1981196.0,restaurant,2013-12-19,41.932752035812285,-87.65364479484688,2013,Restaurant
156221,1236126,REZA'S ANDERSONVILLE,2245694.0,restaurant,2013-12-03,41.97784289507301,-87.66820740032976,2013,Restaurant
156223,1389274,KINDRED CHICAGO-CENTRAL HOSPITAL,1169962.0,restaurant,2013-12-06,41.94008298285754,-87.72954609719962,2013,Restaurant
156227,1199191,BACINO'S OF LINCOLN PARK LTD,31916.0,restaurant,2013-11-14,41.92198099864514,-87.64413167322459,2013,Restaurant
156233,1228398,PHILLY STEAKS,2299248.0,restaurant,2013-12-19,41.794425502990016,-87.64436324151953,2013,Restaurant
156241,1199255,TACO & BURRITOS LOS 3 PANCHO'S,1305335.0,restaurant,2013-12-16,41.93245780886835,-87.65805862829534,2013,Restaurant
156252,1375921,OAK TREE RESTAURANT & BAKERY,1937463.0,restaurant,2013-12-09,41.89924859703626,-87.62427497820545,2013,Restaurant
156253,1199212,JIMMY JOHNS,2093646.0,restaurant,2013-11-26,41.92268910988196,-87.64469333563137,2013,Restaurant
156259,1375462,KUSANYA INC,2294418.0,restaurant,2013-11-15,41.76871169711559,-87.64557778065549,2013,Restaurant
156263,1319957,SICILY PIZZA,2026702.0,restaurant,2013-12-06,41.77776928832673,-87.615417280148,2013,Restaurant
156270,1375742,HABANERO BAJA GRILL,2298574.0,restaurant,2013-12-02,41.88197704758362,-87.63887583987513,2013,Restaurant
156271,1372279,WELLS STREET RESTAURANTS LLC,2129101.0,restaurant,2013-11-18,41.88905785924072,-87.6338415382908,2013,Restaurant
156280,1375576,"BEIJO DE CHOCOLAT, LLC",1968557.0,restaurant,2013-11-21,41.97581377804892,-87.7125529797063,2013,Restaurant
156293,1199246,THE BEAN CAFFE',59444.0,restaurant,2013-12-10,41.92418810267984,-87.65492897859191,2013,Restaurant
156295,1115174,MELI CAFE ON DEARBORN,2294320.0,restaurant,2013-12-09,41.87556910960446,-87.62938322586831,2013,Restaurant
156298,1151904,LA MICHOACANA DE MARTHA LLC,2303641.0,restaurant,2013-12-19,41.81416061869724,-87.69453060572629,2013,Restaurant
156299,1199232,FIXTURE,12378.0,restaurant,2013-12-05,41.93090315674629,-87.6684944832103,2013,Restaurant
156300,1151887,SPEEDWAY #8315,74268.0,gas station restaurant,2013-12-16,41.832133802910384,-87.69472805927644,2013,Restaurant
156301,1199250,QDOBA MEXICAN EATS #2628,2017847.0,restaurant,2013-12-12,41.93253117623138,-87.65370947965262,2013,Restaurant
156313,1389248,CITY NEWS,2163032.0,restaurant,2013-11-19,41.953997998665,-87.74746352030205,2013,Restaurant
156322,1375648,Chili's- G Concourse,34142.0,restaurant,2013-11-25,42.008536400868735,-87.91442843927047,2013,Restaurant
156335,1376111,ELEAVEN FOOD COMPANY,1937525.0,restaurant,2013-12-18,41.89341476719058,-87.62600661616062,2013,Restaurant
156338,1391268,ZANIES COMEDY CLUBS INC,36271.0,restaurant,2013-11-20,41.91056681047194,-87.63483920283966,2013,Restaurant
156341,1376041,LUSCIOUS LAYERS BAKERY,1959151.0,restaurant,2013-12-13,41.92331312798824,-87.67767531799181,2013,Restaurant
156348,1319969,HAROLD'S CHICKEN SHACK #40,2032259.0,restaurant,2013-12-12,41.7943179589749,-87.61890289891872,2013,Restaurant
156354,1391339,PEQUOD'S PIZZA,1963277.0,restaurant,2013-12-20,41.92185083829164,-87.66451630736967,2013,Restaurant
156355,1228381,MINGHIN CUISINE,2177499.0,restaurant,2013-12-13,41.8532702235994,-87.63424788717859,2013,Restaurant
156357,1345757,Qdoba Mexican Eats #2621,1991945.0,restaurant,2013-12-19,41.88323717511991,-87.63255557700788,2013,Restaurant
156370,1376169,G N P H #NINE INC,37913.0,restaurant,2013-12-23,41.95347020105567,-87.73380301330553,2013,Restaurant
156379,1375965,THE PUBLICAN,1821706.0,restaurant,2013-12-10,41.88666984658428,-87.64890500808553,2013,Restaurant
156386,1199244,YAK-ZIES BAR AND GRILL,1898267.0,restaurant,2013-12-10,41.93297221225597,-87.64171516501513,2013,Restaurant
156388,1389254,"FRANK'S CHICAGO SHRIMP HOUSE, INC.",2192890.0,restaurant,2013-11-20,41.95344289157839,-87.75439576492936,2013,Restaurant
156395,1151888,GEORGE'S RESTAURANT,15417.0,restaurant,2013-12-16,41.83118366307158,-87.64597307956893,2013,Restaurant
156397,1151830,CARNITAS URUAPAN,2298331.0,restaurant,2013-11-21,41.85763234806772,-87.6697745345797,2013,Restaurant
156401,1376012,BELLWETHER MEETING HOUSE & EATERY,1243941.0,restaurant,2013-12-12,41.89111635963065,-87.6200659573806,2013,Restaurant
156403,1228342,RANCHO GRANDE NUTRITION,2147553.0,restaurant,2013-12-02,41.81459800958798,-87.66526819201842,2013,Restaurant
