,inspection_id,dba_name,license_,facility_type,inspection_date,latitude,longitude,year,category
160526,1360997,vinces pizzeria   taqueria  inc,0.0,restaurant,2013-09-17,41.99798866563551,-87.66883580355905,2013,Restaurant
163243,1360771,gusi s pizza,0.0,restaurant,2013-09-09,41.702518087781016,-87.55974504990618,2013,Restaurant
164422,1370166,la michoacana,0.0,restaurant,2013-11-04,41.81416061869724,-87.69453060572629,2013,Restaurant
164669,1151592,taqueria chile bravo,0.0,restaurant,2013-09-03,41.85133736450854,-87.6783945206964,2013,Restaurant
168304,1146459,italian pizza kitchen,0.0,restaurant,2013-07-03,41.90734970710327,-87.64926041452054,2013,Restaurant
172764,1188496,unlicensed,0.0,restaurant,2013-01-29,42.01941677429189,-87.68449834218502,2013,Restaurant
173912,1321538,birrieria aquascalientes,0.0,restaurant,2013-01-24,41.93864158190054,-87.7528234779786,2013,Restaurant
175470,1138820,la salle power co ,0.0,restaurant,2013-02-07,41.890841457197695,-87.63270627765388,2013,Restaurant
177888,1202458,essential healthy living inc ,0.0,restaurant,2012-10-10,41.80772734648144,-87.72636656547475,2013,Restaurant
180581,1227591,montoya s ice cream,0.0,restaurant,2012-09-25,41.78624779326939,-87.69654975568328,2013,Restaurant
183933,1229479,alvaro jimenez,0.0,restaurant,2012-06-07,41.81068114659683,-87.6648796277618,2013,Restaurant
184352,1088227,kenny,0.0,restaurant,2012-07-18,41.73869100380115,-87.58510330731285,2013,Restaurant
186558,1150466,the salvation army kroc center,0.0,restaurant,2012-06-13,41.67776039309511,-87.65366213755682,2013,Restaurant
192111,1214351,salvation army arc clybourn,0.0,restaurant,2012-04-24,41.9228752360221,-87.66636681694519,2013,Restaurant
195110,670575,respect for life,0.0,restaurant,2012-02-16,41.75055282036361,-87.64267369127873,2013,Restaurant
3926,1286054,soul gourmet,0.0,restaurant,2012-05-04,41.7798631678725,-87.6445278756232,2013,Restaurant
3365,1199031,irish eyes,44410.0,liquor,2013-08-21,41.92775343910253,-87.65177531105877,2013,Liquor Store
3874,1134729,prohibit,2146303.0,tavern liquor,2012-11-15,41.89012137600596,-87.63186016746914,2013,Liquor Store
133857,1375476,2960 beverage corporation,30782.0,restaurant,2013-11-15,41.93617164858792,-87.63693905225722,2013,Liquor Store
155155,1367430,rothschild liquors,21478.0,liquor,2013-12-02,41.88091056340495,-87.70191164071454,2013,Liquor Store
155217,1375844,logan tavern group  llc,2222278.0,liquor,2013-12-05,41.92500732368619,-87.68801953359667,2013,Liquor Store
156478,1375999,wrongs,2676.0,liquor,2013-12-12,41.7114420164893,-87.68191864161031,2013,Liquor Store
156887,1391297,galleria liqueurs,1068962.0,liquor,2013-12-04,41.91084518940228,-87.63455411523205,2013,Liquor Store
157057,1391257,binny s beverage depot,52405.0,restaurant,2013-11-14,41.89147066871027,-87.63464987539722,2013,Liquor Store
157711,1387292,belmonte liquors,7045.0,liquor,2013-12-11,41.89507338102242,-87.75076923891397,2013,Liquor Store
158326,1391295,mother s too,47008.0,liquor,2013-12-02,41.904041830936535,-87.62925137553839,2013,Liquor Store
159715,1345715,diosa on the river,1975155.0,liquor,2013-12-04,41.88694996938017,-87.62836812398149,2013,Liquor Store
159877,1174652,osco drug  2500,2293800.0,liquor,2013-12-03,41.864521193743535,-87.63930409963562,2013,Liquor Store
161208,1324766,the junction chicago,2245719.0,liquor,2013-11-04,41.878531278353606,-87.63942745962717,2013,Liquor Store
161665,1319705,beacon tap,1681121.0,liquor,2013-08-16,41.6535870071101,-87.5460608117465,2013,Liquor Store
161990,1387247,tantrik chicago,1974373.0,liquor,2013-11-08,41.89566757449822,-87.64777938019307,2013,Liquor Store
162527,1305394,el palenque,1474268.0,liquor,2013-09-09,41.80007923163306,-87.73319334955318,2013,Liquor Store
163104,1372206,richard s bar,80209.0,liquor,2013-09-25,41.891046484349566,-87.64714988556881,2013,Liquor Store
163267,1361394,debonair social club,1226806.0,liquor,2013-10-08,41.91021618406442,-87.67698445293294,2013,Liquor Store
163435,1343442,la roka corp ,1761.0,liquor,2013-09-09,41.8388353981231,-87.71234420552848,2013,Liquor Store
165347,1361054,king food   liquor,40321.0,liquor,2013-09-19,41.76892629684455,-87.64465599703081,2013,Liquor Store
165706,1369600,rhine hall,2232877.0,liquor,2013-10-10,41.88687433960174,-87.67729605577165,2013,Liquor Store
167093,1151431,maria s packaged goods   community bar,2253084.0,liquor,2013-07-09,41.8380910532484,-87.65111734631012,2013,Liquor Store
168096,1277822,mas o menos lounge,2233068.0,liquor,2013-05-06,41.902867714807854,-87.69109787174827,2013,Liquor Store
168240,1319651,mitchell lounge,2184116.0,liquor,2013-07-11,41.76832753024063,-87.67389580865591,2013,Liquor Store
168245,1335955,independent spirits inc ,2197111.0,liquor,2013-06-06,41.99040310845111,-87.66013198125891,2013,Liquor Store
168359,1228084,sixty six o one club,697.0,liquor,2013-08-02,41.773695811390624,-87.68334439509034,2013,Liquor Store
168902,1322542,progress bar,2240697.0,liquor,2013-06-11,41.94357316110511,-87.64922664095873,2013,Liquor Store
168961,1336150,the corrib irish pub,2256664.0,liquor,2013-06-18,41.9815375874498,-87.76221919812195,2013,Liquor Store
169616,1227226,miska s liquor,2138677.0,liquor,2012-05-01,41.777778359158,-87.78178694228211,2013,Liquor Store
169623,1335661,genie s discount liquor   grocery,2073641.0,liquor,2013-05-21,41.894805732844496,-87.75759406086019,2013,Liquor Store
170980,1285600,vishu food   liquor,2152514.0,liquor,2012-09-28,41.92459112698313,-87.70886434414017,2013,Liquor Store
171716,1285815,el paisa lounge,9383.0,liquor,2012-10-11,41.81148733376705,-87.66976098000471,2013,Liquor Store
171867,1151355,hinky dinks pub,14594.0,liquor,2013-06-07,41.69143431638764,-87.70256424147274,2013,Liquor Store
172605,1146339,trevino s liquors inc,9276.0,liquor,2013-03-08,41.83673082682839,-87.72793086609656,2013,Liquor Store
172760,1326561,drop in lounge,2146798.0,liquor,2013-03-26,41.75108300779263,-87.61047505956222,2013,Liquor Store
173659,1277674,hide out inc,1474.0,liquor,2013-01-29,41.91378440726453,-87.66244709996673,2013,Liquor Store
174192,1146376,kedzie liquor,35482.0,liquor,2013-04-25,41.79466537919358,-87.70344423431382,2013,Liquor Store
174594,1326678,the wine huntress,2221605.0,liquor,2013-04-02,41.88950020584384,-87.63416838722894,2013,Liquor Store
175407,1146338,miska s,6905.0,liquor,2013-03-08,41.844340200981776,-87.72621693173878,2013,Liquor Store
175582,1327070,el corral,1844537.0,cat liquor,2013-04-19,41.78638189485879,-87.70179623177904,2013,Liquor Store
176281,1092280,the public house theatre,2203351.0,liquor,2013-01-17,41.9529085373318,-87.66125810838457,2013,Liquor Store
178136,1296211,central  liquors,24500.0,liquor,2012-09-25,41.72836569540381,-87.55081266375262,2013,Liquor Store
178316,1279257,succezz,2098980.0,liquor,2012-10-24,41.88567164152838,-87.68177223280703,2013,Liquor Store
178352,1300299,somewhere in time lounge,1821175.0,liquor,2012-11-02,41.700489135362616,-87.5597142553443,2013,Liquor Store
178585,1235601,marty s,1717294.0,liquor,2013-01-11,41.97972858218319,-87.66875196215193,2013,Liquor Store
178727,1300917,route 43 bar  inc ,2125824.0,liquor,2012-12-13,41.81575399563499,-87.66585278059576,2013,Liquor Store
179059,1301087,super mas market,1997806.0,liquor,2013-01-03,41.80876545825601,-87.66117010835542,2013,Liquor Store
179152,1285501,republic,55715.0,liquor,2012-09-25,41.90970258309405,-87.65117880416885,2013,Liquor Store
179158,1290229,joe s liquor store,49426.0,liquor,2012-10-26,41.77909268469035,-87.68778842592324,2013,Liquor Store
179179,1279245,tommy o,2147177.0,liquor,2012-10-16,41.83730604737545,-87.6661330516157,2013,Liquor Store
179281,1300928,mirnas  inc ,26177.0,liquor,2012-12-14,41.80841570618848,-87.67277103365208,2013,Liquor Store
179400,1300921,gomez lounge inc,1922242.0,liquor,2012-12-13,41.81575399563499,-87.66585278059576,2013,Liquor Store
179752,1319229,juke joynt,2134412.0,liquor,2012-11-20,41.80932375021602,-87.61325959055534,2013,Liquor Store
180396,1300997,tonic room,1274167.0,liquor,2012-12-19,41.92675005562867,-87.64865953821696,2013,Liquor Store
181174,1098756,the beer temple,2189283.0,liquor,2012-12-13,41.93907999018257,-87.69765351023295,2013,Liquor Store
183598,1188320,240 cafe   lounge,1741971.0,liquor,2012-08-23,41.968357068238525,-87.72757835154994,2013,Liquor Store
183698,1234717,lincoln norabang restaurant,1769506.0,liquor,2012-08-20,41.98194878070788,-87.69336920708024,2013,Liquor Store
184147,1227539,prestige hoyne liquor,15947.0,liquor,2012-08-31,41.75010107633995,-87.67488520394886,2013,Liquor Store
184220,1202325,rite liquors,3283.0,liquore store bar,2012-06-21,41.90320537596804,-87.66937146541115,2013,Liquor Store
184881,1229783,family lounge,2137002.0,liquor,2012-06-22,41.767300033477646,-87.6543206847795,2013,Liquor Store
184952,1230089,two way loune,1276355.0,liquor,2012-07-13,41.92488366892586,-87.70104870385482,2013,Liquor Store
185085,1234526,buy low food   liquors,2162938.0,liquor,2012-08-09,41.96897700961856,-87.67069153919947,2013,Liquor Store
185282,1096382,square one lounge,2147307.0,liquor,2012-07-10,41.86400154354981,-87.62422572913968,2013,Liquor Store
185571,1234206,beauty bar,9285.0,liquor,2012-07-19,41.896231064727615,-87.66422034267339,2013,Liquor Store
185889,1285303,green dolphin inc ,2183963.0,liquor,2012-09-18,41.92158491136849,-87.66877310760022,2013,Liquor Store
186585,1114396, m  bar,2157235.0,liquor,2012-08-07,41.88454011059238,-87.62430852246028,2013,Liquor Store
186776,1084372,fire fly events and catering,2162927.0,liquor,2012-09-13,41.88743405025222,-87.68184949426895,2013,Liquor Store
187149,1202351,sun shine food   liquor inc,24512.0,liquor,2012-07-11,41.866314688484486,-87.7227985037213,2013,Liquor Store
190598,1098327,revolution beer llc,2142637.0,liquor,2012-05-17,41.942172620379935,-87.7078475502974,2013,Liquor Store
190877,1215012,carmens place,2010.0,liquor,2012-05-18,41.84092280954314,-87.707517430604,2013,Liquor Store
190891,1196308,black ensemble theater cultura,2113380.0,liquor,2012-05-10,41.96283444151397,-87.66636330699929,2013,Liquor Store
191989,1227224,miska liquor,46310.0,liquor,2012-05-01,41.777778359158,-87.78178694228211,2013,Liquor Store
192268,679984,osco drug  3632,2137471.0,liquor,2012-03-06,41.948004550829744,-87.66418623070139,2013,Liquor Store
193085,1214496,zen wine   spirits,2137476.0,liquor,2012-03-13,41.910449789252766,-87.67271845110511,2013,Liquor Store
194148,606542,sd liquor inc ,2129461.0,liquor,2012-01-19,41.74694756568641,-87.65378788890766,2013,Liquor Store
197133,659969,old town school of folk music,2098166.0,liquor,2012-01-12,41.964372388216674,-87.68560704977685,2013,Liquor Store
3382,1319696,citgo gas station,2036895.0,grocery store,2013-08-12,41.80190798861809,-87.62156099431172,2013,Convenience Store/Gas Station
156349,1228348,clark gas station 1,2009255.0,gas station,2013-12-04,41.84554517176753,-87.63841937017723,2013,Convenience Store/Gas Station
159679,1376124,montrose  gas  station,2299469.0,grocery gas station,2013-12-18,41.96024250396864,-87.77695589620686,2013,Convenience Store/Gas Station
161347,1360877,bjc gas stations inc ,2283907.0,grocery store,2013-09-12,41.92437866356742,-87.72645213394472,2013,Convenience Store/Gas Station
163908,1192211,mobile gas station,1649830.0,grocery store,2013-09-13,41.97293449423836,-87.77778665200465,2013,Convenience Store/Gas Station
164150,1360711,fullerton pulaski incorporated,2119838.0,grocery service gas station,2013-09-05,41.92437866356742,-87.72645213394472,2013,Convenience Store/Gas Station
169123,1146443,55th gas station,2104499.0,grocery store,2013-06-25,41.79300647783262,-87.73302576421982,2013,Convenience Store/Gas Station
172839,1072380,marathon gas,2252432.0,grocery store gas station,2013-04-25,41.74662206284314,-87.66348933329323,2013,Convenience Store/Gas Station
172932,1321341,mobil gas station,1980885.0,grocery store,2013-01-15,41.779849170802734,-87.63213748767913,2013,Convenience Store/Gas Station
181939,1321241,snappy convenience center  4,43704.0,grocery service gas station,2013-01-09,41.91360573157923,-87.68745419657513,2013,Convenience Store/Gas Station
186805,1229587,norma s mini store,0.0,grocery store,2012-06-13,41.85386830200632,-87.67821915483191,2013,Grocery Store
3201,1072706,pete s produce,1448266.0,grocery store,2013-12-19,41.73574485136591,-87.65871770565929,2013,Grocery Store
3205,1376081,7 eleven,1573185.0,grocery store,2013-12-17,41.93767057742731,-87.64417359247956,2013,Grocery Store
3207,1151890,lagos fruit market,2027104.0,grocery store,2013-12-16,41.85761819384384,-87.67092700126422,2013,Grocery Store
3215,1391301,munchies,1120952.0,grocery store,2013-12-05,41.90046290693005,-87.63746817234774,2013,Grocery Store
3217,1393237,s s deli,2021011.0,grocery store,2013-12-03,41.941157263597,-87.70110537875657,2013,Grocery Store
3227,920431,79th   rhodes produce inc ,2083645.0,grocery store,2013-11-21,41.75107097352686,-87.61122848785296,2013,Grocery Store
3230,1151819,supermarket la familia,2293604.0,grocery store,2013-11-19,41.85035962181883,-87.68326750980562,2013,Grocery Store
3232,1319912,village foods,6936.0,grocery store,2013-11-18,41.802359209138494,-87.58840008715637,2013,Grocery Store
3248,1369906,8 eighty eight,2009067.0,grocery store,2013-10-23,41.968866898343286,-87.67911370027275,2013,Grocery Store
3272,1329560,7 eleven  27421j,2278540.0,grocery store,2013-10-10,41.953292847298,-87.76706570775266,2013,Grocery Store
3279,1166450,dona maris  2,24877.0,grocery store,2013-10-07,41.96119793965089,-87.7164129559992,2013,Grocery Store
3283,1369474,hudson news,2289515.0,grocery store,2013-10-04,42.008536400868735,-87.91442843927047,2013,Grocery Store
3286,1343497,19th st food mart,2008931.0,grocery store,2013-10-03,41.85498427589262,-87.72470284188567,2013,Grocery Store
3289,1115051,the chase shop,1622073.0,grocery store,2013-10-01,41.88143431313232,-87.63072037749313,2013,Grocery Store
3293,1369370,hudson,2289495.0,grocery store,2013-10-01,42.008536400868735,-87.91442843927047,2013,Grocery Store
3298,1296609,brandon s food mart,1981133.0,grocery store,2013-09-27,41.74481111111927,-87.54654088109194,2013,Grocery Store
3302,1188727,santa maria supermercado   1,2079153.0,grocery store,2013-09-27,41.91697453533218,-87.75453407672242,2013,Grocery Store
3304,1372207,plum market,2163618.0,grocery store,2013-09-26,41.904896822179,-87.63436941846913,2013,Grocery Store
3308,1151663,mariano s,2271470.0,grocery store,2013-09-24,41.85962967731282,-87.63012489927696,2013,Grocery Store
3309,1072572,western convenience store,2284766.0,grocery store,2013-09-24,41.78044753775588,-87.68381968063304,2013,Grocery Store
3332,1305398,archer tobacco   food  inc ,2283512.0,grocery store,2013-09-09,41.795707832594665,-87.76313562474643,2013,Grocery Store
3333,1151611,madina food mart,2137627.0,grocery store,2013-09-09,41.73610237328168,-87.72103293124822,2013,Grocery Store
3341,1319738,garfield super saver,2278634.0,grocery store,2013-09-05,41.794777232849405,-87.62391935385449,2013,Grocery Store
3360,1360470,walmart  5645,2153545.0,grocery store,2013-08-23,41.93403616510409,-87.64455372891567,2013,Grocery Store
3369,1360366,g   f produce,1301839.0,grocery store,2013-08-19,41.76426517759021,-87.62473433928172,2013,Grocery Store
3374,1319700,michaels fresh market,2043177.0,grocery store,2013-08-15,41.80977272660802,-87.59496089093687,2013,Grocery Store
3381,1354198,stop and shop for u,2270095.0,grocery store,2013-08-12,41.91101314874418,-87.63801771166592,2013,Grocery Store
3389,1305370,walgreens  11492,2163707.0,grocery store,2013-08-06,41.798703799237,-87.74335393697139,2013,Grocery Store
3390,1358211,cent   div petroleum  inc ,2270979.0,grocery store,2013-08-05,41.9021910503325,-87.76550765713982,2013,Grocery Store
3399,1354006,amp food mart,2036784.0,grocery store,2013-08-01,41.86660247749348,-87.69737609001699,2013,Grocery Store
3411,1353895,supermercado cardenas,1596877.0,grocery store,2013-07-29,41.96121761602189,-87.71482086236585,2013,Grocery Store
3413,1353865,division food market,2277647.0,grocery store,2013-07-25,41.9024792113194,-87.73134481666703,2013,Grocery Store
3418,1319669,vegas food   liquor inc,19322.0,grocery store,2013-07-22,41.82393055345694,-87.61791089426521,2013,Grocery Store
3419,1228061,24 7 express mart  inc ,2134068.0,grocery store,2013-07-19,41.80122901393558,-87.66462760750323,2013,Grocery Store
3433,1296467,merrill food,2269603.0,grocery store,2013-07-15,41.76638296181624,-87.57286408218143,2013,Grocery Store
3460,1146445,dollar   up group inc ,2054850.0,grocery store,2013-06-25,41.79361538661615,-87.70370439210384,2013,Grocery Store
3481,1336003,five star general merchant,2263226.0,grocery store,2013-06-10,41.8795066466314,-87.68624161104319,2013,Grocery Store
3496,1343306,franks food   liquor,15508.0,grocery store,2013-06-04,41.84603982269178,-87.72446778165362,2013,Grocery Store
3501,1227986,los tres hermanos inc ,1887407.0,grocery store,2013-05-31,41.80682632208812,-87.6699313264291,2013,Grocery Store
3503,1335841,la unica food mart  inc ,491.0,restaurant grocery store,2013-05-31,41.99799345967903,-87.66842788571333,2013,Grocery Store
3506,1343301,milky way food inc ,2109963.0,grocery store,2013-05-30,41.85896229999507,-87.72612326321972,2013,Grocery Store
3524,1335743,mid town foods,39968.0,grocery store,2013-05-24,41.90258387387031,-87.72361924848285,2013,Grocery Store
3538,1072415,t   m market  inc ,2254232.0,grocery store,2013-05-16,41.78044753775588,-87.68381968063304,2013,Grocery Store
3544,1335550,midtown market,2229407.0,grocery store,2013-05-14,41.90258387387031,-87.72361924848285,2013,Grocery Store
3545,1335519,windy city mini mart  inc ,2124787.0,grocery store,2013-05-13,41.906101127773695,-87.7259603741068,2013,Grocery Store
3550,1155034,la flor grocery  2,1987106.0,grocery store,2013-05-09,41.709849227540026,-87.55216756556668,2013,Grocery Store
3553,1335437,la international,57700.0,grocery store,2013-05-09,41.81530069366088,-87.70204160078063,2013,Grocery Store
3560,1166307,johnny s food store,2142264.0,grocery store,2013-05-08,41.946093364899134,-87.73510591656328,2013,Grocery Store
3591,1324420,super nut   candy,2114624.0,grocery store,2013-04-23,41.884187507127805,-87.64111966683218,2013,Grocery Store
3595,1327125,las americas,2232386.0,grocery store,2013-04-23,41.90246838200645,-87.7264432559915,2013,Grocery Store
3597,1327115,avenue warehouse maraket  inc,2240742.0,grocery store,2013-04-22,41.89495931732741,-87.76563183906008,2013,Grocery Store
3602,1343226,la trinidad,2247101.0,grocery store,2013-04-19,41.85049016185051,-87.70536206979284,2013,Grocery Store
3610,1072363,monterrey food mart,2247209.0,grocery store,2013-04-17,41.75026194676381,-87.66225587318787,2013,Grocery Store
3622,1343210,madison food,2097977.0,grocery store,2013-04-12,41.88049945075728,-87.73559596098201,2013,Grocery Store
3628,1106485,city fresh market,1479959.0,grocery store,2013-04-09,41.9972784744174,-87.70940735717784,2013,Grocery Store
3632,1227858,key food market,2240288.0,grocery store,2013-04-08,41.81531320103716,-87.60653019507049,2013,Grocery Store
3636,1326697,sam s food and deli,2240950.0,grocery store,2013-04-03,41.75907792714243,-87.56816021588293,2013,Grocery Store
3648,1326582,speedy convenient,2245482.0,grocery store,2013-03-27,41.77900504590168,-87.69345011858015,2013,Grocery Store
3651,1277757,seattle suttons,2245338.0,grocery store,2013-03-25,41.92051955598794,-87.6775759160868,2013,Grocery Store
3675,1166227,dollar price plus,1868586.0,grocery store,2013-03-05,41.93663593117463,-87.72696891450994,2013,Grocery Store
3707,1321828,la tuya grocery,1596840.0,grocery store,2013-02-13,41.83702156107857,-87.73028552616124,2013,Grocery Store
3711,1322359,walgreens  15493,2220686.0,grocery store,2013-02-08,41.939675644909386,-87.66253481426286,2013,Grocery Store
3724,1084374,cermak   pulaski foods,1991402.0,grocery store,2013-02-05,41.851658605222255,-87.72461750088907,2013,Grocery Store
3725,1277683,ukraina deli,1969227.0,grocery store,2013-02-05,41.89589024316808,-87.68467413335532,2013,Grocery Store
3728,1321659,dollar general store  13777,2231663.0,grocery store,2013-01-31,41.9095215021138,-87.76279312938051,2013,Grocery Store
3732,1206421,sunrise fresh market 2,1816485.0,grocery store,2013-01-28,41.93057214825129,-87.71009991550633,2013,Grocery Store
3745,1279367,qorner foods,2013363.0,grocery store,2013-01-22,41.87294753276929,-87.76377219082919,2013,Grocery Store
3746,1279366,hunaid foods,2104322.0,grocery store,2013-01-22,41.87294753276929,-87.76377219082919,2013,Grocery Store
3757,1235607,carniceria la azteca,1354069.0,grocery store,2013-01-15,42.01096295270289,-87.67421465771075,2013,Grocery Store
3775,1154791,three roosters  inc,1980803.0,grocery store,2013-01-08,41.67097176542204,-87.64153304963426,2013,Grocery Store
3791,1313368,jay lobby shop,1488993.0,grocery store,2013-01-03,41.881967467024346,-87.6351654428475,2013,Grocery Store
3796,1301105,pal food   liquor,21947.0,grocery store,2013-01-03,41.79757999603747,-87.66482481850112,2013,Grocery Store
3817,1151031,taylor s market,2202512.0,grocery store,2012-12-18,41.78327093253042,-87.66060264180996,2013,Grocery Store
3821,1300877,baraka convenience market inc,2079695.0,grocery store,2012-12-11,41.93823154736274,-87.78443477974331,2013,Grocery Store
3825,1206393,mango food wine   spirits,2185349.0,grocery store,2012-12-11,41.90677803078131,-87.68689572945554,2013,Grocery Store
3831,1300801,el milagro,43513.0,grocery store,2012-12-06,41.84468732736255,-87.70210293602436,2013,Grocery Store
3845,1277546,serrellis finer foods,2088670.0,grocery store,2012-11-30,41.90922989499976,-87.78712882071771,2013,Grocery Store
3851,1098730,fannie may,2196876.0,grocery store,2012-11-29,41.94240558169695,-87.68840366019266,2013,Grocery Store
3852,1277534,green food mart,2120496.0,grocery store,2012-11-29,41.92437241557,-87.72689204211684,2013,Grocery Store
3870,1227668,7  eleven,1333944.0,grocery store,2012-11-16,41.78582569362193,-87.72301907116594,2013,Grocery Store
3882,1138477,gateway,2183539.0,grocery store,2012-09-12,41.884779704626446,-87.63080066748626,2013,Grocery Store
3889,1234935,baltic deli  inc ,1892434.0,grocery store,2012-08-28,41.94520739897459,-87.81561657009544,2013,Grocery Store
3894,1134481,a   p newsstand,1959525.0,grocery store,2012-08-10,41.881822493770215,-87.6354365710274,2013,Grocery Store
3908,1235273,kukulu market,2157954.0,grocery store,2012-07-10,41.99331461153644,-87.66022201286383,2013,Grocery Store
3918,1150432,global groceries,2059497.0,grocery store,2012-06-05,41.706991857937496,-87.64662641289908,2013,Grocery Store
3927,1214627,el mexicano,2152689.0,grocery store,2012-05-04,41.82175590300105,-87.69447892751417,2013,Grocery Store
3932,1214330,anjani food   liquor inc ,2089297.0,grocery store,2012-04-24,41.96848268957195,-87.6914089058082,2013,Grocery Store
3941,1227285,63rd food mart,2142306.0,grocery store,2012-03-15,41.77892076250485,-87.69914649328393,2013,Grocery Store
3948,670873,gee jays,2124848.0,grocery store,2012-02-24,41.73696532128921,-87.72165211814503,2013,Grocery Store
3963,659970,fares corporation,2134225.0,grocery store,2012-01-12,41.91080584441617,-87.6971595317246,2013,Grocery Store
132095,1305472,relay  4202,2125352.0,grocery store,2013-12-13,41.789329323265385,-87.74164564419637,2013,Grocery Store
136077,1199205,trader joe s,1991804.0,grocery store,2013-11-25,41.93266601166945,-87.64618727181544,2013,Grocery Store
136155,1375761,roseland food mart,1769553.0,grocery store,2013-12-02,41.69998846562658,-87.62107645649334,2013,Grocery Store
138202,1296539,park view mart  inc,2278759.0,grocery store,2013-08-26,41.77336840854663,-87.57663855217714,2013,Grocery Store
138440,1188759,nelly s food mart corp ,1802804.0,grocery restaurant,2013-10-11,41.91540434827496,-87.72880463333307,2013,Grocery Store
144689,1360888,7   eleven,1121437.0,grocery store,2013-09-12,41.97693688769671,-87.76907431197014,2013,Grocery Store
150285,1343585,shell,2068916.0,grocery store,2013-12-11,41.844407330022506,-87.70509984940453,2013,Grocery Store
151919,1345672,chicago downtown framstand,1932009.0,grocery store,2013-11-18,41.884608470929656,-87.62547447957526,2013,Grocery Store
152066,1375464,family discount   grocery,2141330.0,grocery store,2013-11-15,41.9681333106261,-87.72796442844874,2013,Grocery Store
153649,1375896,el  paseo  boricua,1301216.0,grocery store,2013-12-06,41.90305420014172,-87.69477042078294,2013,Grocery Store
153934,1072702,67th citgo,2163778.0,grocery store,2013-12-18,41.77209823278005,-87.66416461759566,2013,Grocery Store
153977,1389235,bristol liquors inc,26821.0,grocery store,2013-11-12,41.938586958959895,-87.75703789735589,2013,Grocery Store
154050,1107008,quick stop food mart,39791.0,grocery store,2013-12-05,42.004750073091,-87.69942277659017,2013,Grocery Store
154070,1389250,elston grocers,7362.0,grocery store,2013-11-19,41.95975035295093,-87.72820454561011,2013,Grocery Store
154518,1375925,mercadito la economica,1442242.0,grocery store,2013-12-09,41.83904453793104,-87.71083569390026,2013,Grocery Store
154633,1375545,7 eleven  33768h,2289688.0,grocery store,2013-11-19,41.99439639473516,-87.80239443586892,2013,Grocery Store
154638,1391309,the spice house,85491.0,grocery store,2013-12-06,41.90958317993464,-87.63480757563748,2013,Grocery Store
154652,1296697,jewel food store  3030,1000572.0,grocery store,2013-11-20,41.75780565854321,-87.58626825801873,2013,Grocery Store
154655,1296736,rays e mart,2196633.0,grocery store,2013-12-16,41.67226959743144,-87.64157648084111,2013,Grocery Store
154657,1305456,carniceria y fruteria favela,68064.0,grocery store,2013-11-21,41.78621896335036,-87.69840666972154,2013,Grocery Store
154662,1296730,cvs pharmacy  8507,1697605.0,grocery store,2013-12-12,41.728974869776486,-87.55449740137384,2013,Grocery Store
154670,1387275,hateeb mini mart,2137176.0,grocery store,2013-12-02,41.87363647787246,-87.70113405913219,2013,Grocery Store
154702,1367415,duwell fish inc   2,1914029.0,grocery store,2013-11-21,41.872973377321415,-87.72525817066807,2013,Grocery Store
154709,1376075,more for less,1948557.0,grocery store,2013-12-16,41.89487824738007,-87.74782978563464,2013,Grocery Store
154715,1375987,west lakeview liquors  inc,2054018.0,grocery store,2013-12-11,41.94691370167882,-87.68318103147612,2013,Grocery Store
154739,1375563,ms  d s candy shop,2179704.0,grocery store,2013-11-20,41.706892384197566,-87.63626562743048,2013,Grocery Store
154748,1107002,mega mart,2294442.0,grocery store,2013-12-02,42.01256119339587,-87.67477437039051,2013,Grocery Store
154767,1375609,lake point market,1985443.0,grocery store,2013-11-22,41.89127929349215,-87.61410753333017,2013,Grocery Store
154792,1329630,addison superette,45036.0,grocery store,2013-11-26,41.94584669927212,-87.77989370518668,2013,Grocery Store
154814,1367457,kostner food basket,2202172.0,grocery store,2013-12-26,41.87983508374255,-87.7355964756099,2013,Grocery Store
154837,1375929,walgreens  15281,2183590.0,grocery store,2013-12-09,41.93332233478219,-87.645134355901,2013,Grocery Store
154843,1296706,bagiana unlimited inc ,1974146.0,grocery store,2013-11-25,41.75897353925762,-87.57729918921719,2013,Grocery Store
154867,1375881,jerry food mart,1095700.0,grocery store,2013-12-05,42.00549105122981,-87.6702016081931,2013,Grocery Store
154921,1296712,downtown marathon,2032168.0,grocery store,2013-11-27,41.72231521886031,-87.57885432340228,2013,Grocery Store
154925,1155174,the allstar quick mart,2157395.0,grocery store,2013-12-03,41.68511352066478,-87.63094875183687,2013,Grocery Store
154946,1296727,john s corner store,1678171.0,grocery store,2013-12-11,41.7026444162474,-87.54024749218388,2013,Grocery Store
154965,1236124,dominick s  2890,2042094.0,grocery store,2013-12-03,41.976481667612425,-87.65483977716684,2013,Grocery Store
154972,1376101,corliss shell   dunkin donut mr sub,46068.0,grocery store,2013-12-18,41.69286047718907,-87.60074187522434,2013,Grocery Store
154987,1393217,speedway   8317,74264.0,grocery store,2013-11-14,41.943049987813325,-87.67859461686704,2013,Grocery Store
154990,1072673,clara s convenience store  inc,2293681.0,grocery store,2013-11-26,41.79213790709884,-87.67682939942361,2013,Grocery Store
154993,1375920,eddie s food   liquor,1226.0,grocery store,2013-12-09,41.71633044673004,-87.6043502679803,2013,Grocery Store
155012,1367440,daily food   liquor inc,63980.0,grocery store,2013-12-05,41.86991790900095,-87.72519091966551,2013,Grocery Store
155039,1375586,4343 petes fresh market,1336669.0,grocery store,2013-11-21,41.81391431134689,-87.7236649419466,2013,Grocery Store
155084,1391304,circle k  6736,2013754.0,grocery store,2013-12-05,41.89665537108304,-87.63750750143288,2013,Grocery Store
155085,1367436,van buren market,2130164.0,grocery store,2013-12-04,41.87495722969212,-87.74491858305608,2013,Grocery Store
155089,1115148,new colony shop,1766089.0,grocery store,2013-11-22,41.876791679299416,-87.62915285947396,2013,Grocery Store
155121,1375909,terry food  2,1246874.0,grocery store,2013-12-06,41.77410105679016,-87.6642196704863,2013,Grocery Store
155128,1389268,madni mart u s a  inc ,1301419.0,grocery store,2013-11-26,41.99781439642854,-87.69150610963688,2013,Grocery Store
155148,1305471,relay store   4182,1489266.0,grocery store,2013-12-13,41.78783563115532,-87.74127655955658,2013,Grocery Store
155153,1375775,afandina grocery   meat market  inc,2294366.0,grocery store,2013-12-03,41.96486826553557,-87.70821365991304,2013,Grocery Store
155163,1345686,300 concession shop inc ,59091.0,grocery store,2013-11-22,41.88462378463585,-87.62047604442976,2013,Grocery Store
155169,1376162,cvs pharmacy  5836,1547606.0,grocery store,2013-12-20,41.79957783364987,-87.5954321093407,2013,Grocery Store
155173,1372289,copperfields market,1884701.0,grocery store,2013-11-21,41.89494810890984,-87.63086594706665,2013,Grocery Store
155186,1389252,liluva salud y vida,2129382.0,grocery store,2013-11-19,41.96103088961655,-87.73013984532146,2013,Grocery Store
155193,1367393,m  l  k   food mart  inc ,2027911.0,grocery store,2013-11-13,41.87786890675828,-87.72569910538914,2013,Grocery Store
155227,1151907,walmart neighborhood market  5646,2164056.0,grocery store,2013-12-19,41.85186827166058,-87.69007512129495,2013,Grocery Store
155229,1389242,bel park food   liquor,1678151.0,grocery store,2013-11-15,41.93894783061534,-87.7460047806082,2013,Grocery Store
155247,1296733,cvs pharmacy  2935,1423194.0,grocery store,2013-12-13,41.736481612062526,-87.58578401346767,2013,Grocery Store
155252,1228391,wing cheong grocery inc,1515706.0,grocery store,2013-12-18,41.850468483802665,-87.63181591235539,2013,Grocery Store
155258,1383228,7 eleven  33956 j,2283552.0,grocery store,2013-11-14,41.91747358536286,-87.66734009577607,2013,Grocery Store
155268,1375954,longwood foods,1143139.0,grocery store,2013-12-10,41.69171956132765,-87.67211424461023,2013,Grocery Store
155270,1329657,7 eleven   30099m,2293324.0,grocery store,2013-12-12,41.93836238150734,-87.79000628815903,2013,Grocery Store
155291,1072707,pete s meat   grocery 2,1646096.0,grocery store,2013-12-20,41.76469612104134,-87.67359278470066,2013,Grocery Store
155298,1375577,lucky mini mart,2293790.0,grocery store,2013-11-21,41.95611710415539,-87.67996561643453,2013,Grocery Store
155306,1375838,petra mini mart  inc ,2042176.0,grocery store,2013-12-04,41.751720377952616,-87.55893129286477,2013,Grocery Store
155316,1375437,n   a food mart,2032801.0,grocery store,2013-11-14,41.75103049992091,-87.61364868855419,2013,Grocery Store
155327,1319913,king food mart,2129795.0,grocery store,2013-11-18,41.8166750350858,-87.62132979928587,2013,Grocery Store
155328,1383312,lala food mart,2087688.0,grocery store,2013-12-16,41.90201943180487,-87.69671000491572,2013,Grocery Store
155339,1228341,speedy convienient,2079011.0,grocery store,2013-12-02,41.80304683982212,-87.66496864366974,2013,Grocery Store
155343,1391341,j   r liquor   food,1738916.0,grocery store,2013-12-20,41.92519975246885,-87.6680005030265,2013,Grocery Store
155374,1376199,roosevelt jefferson clinton llc,2298667.0,grocery store,2013-12-30,41.86889238849353,-87.64209545611185,2013,Grocery Store
155381,1367432,madison shop   save inc ,2203361.0,grocery store,2013-12-03,41.88024001496623,-87.75685540109451,2013,Grocery Store
155392,1107006,muller meats,1195463.0,grocery store,2013-12-04,41.99038076366031,-87.69125603349892,2013,Grocery Store
155398,1370076,dollar day plus of illinois inc,1247002.0,grocery store,2013-10-30,42.00801322831398,-87.66626722064632,2013,Grocery Store
155423,1236117,ishtar market,2294174.0,grocery store,2013-11-25,41.99761554442444,-87.70273035752693,2013,Grocery Store
155431,1296708,midwest,1677326.0,grocery store,2013-11-25,41.75897353925762,-87.57729918921719,2013,Grocery Store
155440,1319926,medo foods,2298446.0,grocery store,2013-11-22,41.78917398251256,-87.61989129248225,2013,Grocery Store
155456,1151831,aaa food,1120899.0,grocery store,2013-11-21,41.84659196320168,-87.69293766460069,2013,Grocery Store
155458,1367424,laramie mini mart 1,2152950.0,grocery store,2013-11-26,41.87556917371918,-87.75503258715625,2013,Grocery Store
155491,920430,79th st mini mart,2109973.0,grocery store,2013-11-21,41.75107097352686,-87.61122848785296,2013,Grocery Store
155495,1393256,salud es vida herbalife,2158002.0,grocery store,2013-12-16,41.93992417098026,-87.7254431040074,2013,Grocery Store
155500,1329622,cvs pharmacy  1676,1921197.0,grocery store,2013-11-21,41.93821339881632,-87.7856085235934,2013,Grocery Store
155512,1072677,five star certified inc,7168.0,grocery store,2013-12-02,41.73590840570721,-87.64742288026997,2013,Grocery Store
155521,1228365,park packing co,16523.0,grocery store,2013-12-09,41.81939879630643,-87.6650809078756,2013,Grocery Store
155531,1151876,open pantry,42523.0,grocery store,2013-12-12,41.69867524086993,-87.72049485543255,2013,Grocery Store
155534,1174645,olympic_meat packers inc,19345.0,grocery store,2013-11-18,41.88450900503379,-87.64793566139686,2013,Grocery Store
155558,1092720,mrs  green s of webster,2290148.0,grocery store,2013-11-13,41.921779974420936,-87.64366314188526,2013,Grocery Store
155578,1319951,jamaica food   liquor inc,22679.0,grocery store,2013-12-05,41.81702976524998,-87.60685791987792,2013,Grocery Store
155580,1376156,darth vapor inc,2299454.0,grocery store,2013-12-20,41.93882779458902,-87.75535516733873,2013,Grocery Store
155585,1343562,unique discount stores  inc,2069635.0,grocery store,2013-11-15,41.88019235442935,-87.76056475660084,2013,Grocery Store
155600,1391258,cvs pharmacy  8698,1695272.0,grocery store,2013-11-15,41.90373979649519,-87.63129317946974,2013,Grocery Store
155606,1155180,mario grocery   fast food  inc ,2278479.0,grocery store,2013-12-06,41.77410105679016,-87.6642196704863,2013,Grocery Store
155653,1296742,family dollars   5635,1355179.0,grocery store,2013-12-18,41.68105255954936,-87.53659556889872,2013,Grocery Store
155654,1155176,sam food mart inc,1904672.0,grocery store,2013-12-05,41.70685453314811,-87.65880171647811,2013,Grocery Store
155661,1329613,7 eleven  3489104,2059645.0,grocery store,2013-11-14,41.9676824884904,-87.73930534313814,2013,Grocery Store
155689,1296735,saginaw wine and liquors  inc ,38682.0,grocery store,2013-12-16,41.74442509646372,-87.56061004382433,2013,Grocery Store
155697,1375518,michigan candy store,2004511.0,grocery store,2013-11-18,41.90080164945196,-87.6242724679302,2013,Grocery Store
155706,1375500,del rancho market,2253109.0,grocery store,2013-11-18,41.923703157364855,-87.79585329820894,2013,Grocery Store
155721,1375981,my choice wholesale and retail,2298968.0,grocery store,2013-12-10,41.998143643511376,-87.68760434675318,2013,Grocery Store
155726,1376139,whole foods market,54059.0,grocery store,2013-12-19,41.94156585778224,-87.6688604029088,2013,Grocery Store
155728,1375905,rigo s grocery,1144306.0,grocery store,2013-12-06,41.83893674525578,-87.71723055457336,2013,Grocery Store
155738,1319946,fair food mart,2125851.0,grocery store,2013-12-03,41.76913494092064,-87.62037053802513,2013,Grocery Store
155755,1383342,amman one stop shop,2299559.0,grocery store,2013-12-27,41.93178164211677,-87.71863201286443,2013,Grocery Store
155759,1389285,the super discount,2109231.0,grocery store,2013-12-16,41.9384664764612,-87.7663567364366,2013,Grocery Store
155773,1376010,jewel food store  3376,1909968.0,grocery store,2013-12-12,41.88891817356032,-87.64447797292972,2013,Grocery Store
155774,1389300,montrose deli   fruit market,20886.0,grocery store,2013-12-27,41.96042826406876,-87.7626656720388,2013,Grocery Store
155777,1383308,north ave food mart inc,2233075.0,grocery store,2013-12-13,41.90949904495798,-87.76471097912471,2013,Grocery Store
155784,1228384,halsted food   fresh meat,2102425.0,grocery store,2013-12-16,41.80162841617951,-87.645492014632,2013,Grocery Store
155787,1375514,new york deli  inc ,2079741.0,grocery store,2013-11-18,41.80945773588204,-87.61883285886145,2013,Grocery Store
155797,1319970,family dollar,1801556.0,grocery store,2013-12-12,41.77896886166688,-87.60575207723603,2013,Grocery Store
155811,1107001,daallo meat   grocery  inc,2013707.0,grocery store,2013-12-02,41.997682115657,-87.69891315910674,2013,Grocery Store
155838,1151842,genie s discount food and liquor,2270804.0,grocery store,2013-12-02,41.85180872766685,-87.69406895512294,2013,Grocery Store
155855,1174653,jewel food store  2500,2293801.0,grocery store,2013-12-03,41.864521193743535,-87.63930409963562,2013,Grocery Store
155865,1110401,teavana corporation,1592301.0,grocery store,2013-11-14,41.8977408562525,-87.62396131598219,2013,Grocery Store
155873,1375712,n   b dollar store plus,2298542.0,grocery store,2013-11-27,41.75035201820849,-87.65612143834691,2013,Grocery Store
155874,1305473,relay store   4162,1403725.0,grocery store,2013-12-13,41.78783563115532,-87.74127655955658,2013,Grocery Store
155876,1199233,milito s mobil,1883644.0,grocery store,2013-12-05,41.92544377898498,-87.656314390191,2013,Grocery Store
155909,1376152,123 grocery plus,2294445.0,grocery store,2013-12-20,41.891819111189626,-87.70629658310831,2013,Grocery Store
155938,1375715,lolin food inc ,2298237.0,grocery store,2013-11-29,41.84232306101153,-87.71244395700559,2013,Grocery Store
155950,1343595,cermak food mart,1821870.0,grocery store,2013-12-19,41.85158988257894,-87.72945401335832,2013,Grocery Store
155978,1375660,aden sea food   meat market,2137390.0,grocery store,2013-11-25,41.96843058653144,-87.69759092752909,2013,Grocery Store
155983,1375926,hanas finer food and liquor,12217.0,grocery store,2013-12-09,41.73671244036,-87.59245525003948,2013,Grocery Store
156003,1072694,a   n food mart  inc ,2133936.0,grocery store,2013-12-11,41.75616269963919,-87.6528196032268,2013,Grocery Store
156057,1228329,tuxedo junction  2,8974.0,grocery store,2013-11-20,41.81618610986143,-87.64345182349379,2013,Grocery Store
156063,1367460,noor food,1169247.0,grocery store,2013-12-27,41.87302363142662,-87.75752317492451,2013,Grocery Store
156066,1329655,super gift   groceries,2079754.0,grocery store,2013-12-11,41.99765846224234,-87.68767204213614,2013,Grocery Store
156072,1367454,pulaski dollar  food  inc ,2013307.0,grocery store,2013-12-23,41.87153178494351,-87.7252217460104,2013,Grocery Store
156094,1072676,four brothers food   liquor inc,43037.0,grocery store,2013-12-02,41.75021123096092,-87.66634242788096,2013,Grocery Store
156097,1319984,golden food mart,2299225.0,grocery store,2013-12-19,41.751104138301,-87.60926374121179,2013,Grocery Store
156098,1329620,miska liquors,1193801.0,grocery store,2013-11-20,41.95202371515413,-87.83295904792494,2013,Grocery Store
156132,1391282,best western river north hotel,8192.0,grocery store,2013-11-26,41.8923036656378,-87.63226860744216,2013,Grocery Store
156134,1155187,aleen food mart inc,2068732.0,grocery store,2013-12-16,41.6853450490904,-87.62994825488515,2013,Grocery Store
156158,1329638,al bayan grocery inc ,1542202.0,grocery store,2013-12-05,41.93756465015517,-87.78605436856363,2013,Grocery Store
156168,1391321,munchies on larrabee,2073925.0,grocery store,2013-12-13,41.9008485875064,-87.64325553650413,2013,Grocery Store
156170,1324827,riverside lobby shop,19073.0,grocery store,2013-12-12,41.881664289382925,-87.63888744408949,2013,Grocery Store
156189,1319930,jimmy s food mart,1888724.0,grocery store,2013-11-25,41.8273632480103,-87.62182693101032,2013,Grocery Store
156191,1319936,saja foods,2293220.0,grocery store,2013-11-29,41.78917398251256,-87.61989129248225,2013,Grocery Store
156204,1387270,fiore delicatessen,3750.0,grocery store,2013-11-26,41.89317144188936,-87.68419975235183,2013,Grocery Store
156210,1375724,indo pak meat grocery llc,2021899.0,grocery store,2013-11-29,41.96836564028846,-87.72658635101799,2013,Grocery Store
156215,1391361,7 eleven   33809c,2192593.0,grocery store,2013-12-30,42.00561787658474,-87.66078593720823,2013,Grocery Store
156251,1296738,prime time food   liquors 79th,2240086.0,grocery store,2013-12-17,41.75161868179661,-87.58372509914342,2013,Grocery Store
156254,1383268,food 4 less,1884255.0,grocery store,2013-11-29,41.909505147743424,-87.74695993627232,2013,Grocery Store
156261,1383293,windy city  mini markeet ,1927713.0,grocery store,2013-12-09,41.89610573069837,-87.67194771359618,2013,Grocery Store
156275,1236121,chicago zabiha halal meat mark,2032147.0,grocery and butcher,2013-11-26,41.99767579939321,-87.68667806190682,2013,Grocery Store
156297,1343573,west side shop   save,2262485.0,grocery store,2013-11-21,41.85896229999507,-87.72612326321972,2013,Grocery Store
156321,1329641,bp amoco,1887541.0,grocery store,2013-12-06,41.94562902171779,-87.80687135285183,2013,Grocery Store
156324,1324789,gateway newstand,40006.0,grocery store,2013-11-14,41.88241090648542,-87.63717471046387,2013,Grocery Store
156327,1375969,kikka halsted,1898499.0,grocery store,2013-12-10,41.9485198030326,-87.64967012486451,2013,Grocery Store
156330,1376112,la burbuja  inc ,1275350.0,grocery store,2013-12-18,41.83508024890906,-87.71805393870414,2013,Grocery Store
156374,1375435,n and a food mart inc,1980101.0,grocery store,2013-11-14,41.75103049992091,-87.61364868855419,2013,Grocery Store
156412,1329637,jj peppers food store,1094878.0,grocery store,2013-12-05,41.94571656305218,-87.76660329761108,2013,Grocery Store
156432,1376006,citgo food mart,11215.0,grocery store,2013-12-12,41.96079002270176,-87.74768935876764,2013,Grocery Store
156450,1375924,7 eleven   33727a,2043013.0,grocery store,2013-12-09,41.87901072333905,-87.65720059199599,2013,Grocery Store
156481,1115142,south loop market,2179564.0,grocery store,2013-11-21,41.86512195007329,-87.62080972010526,2013,Grocery Store
156564,1072705,food 4 less midwest  552,1596210.0,grocery store,2013-12-19,41.76579077043187,-87.66396688645497,2013,Grocery Store
156573,1343556,la estrella,1959490.0,grocery store,2013-11-14,41.84418808030004,-87.72094986894369,2013,Grocery Store
156593,1296743,walgreens   13106,2094120.0,drug store grocery,2013-12-18,41.68085613627734,-87.53995659734622,2013,Grocery Store
156597,1199267,treasure island foods,1315.0,grocery store,2013-12-18,41.91989968396778,-87.66180553636595,2013,Grocery Store
156602,1375495,walgreens   02340,1493574.0,grocery store,2013-11-18,41.89114732575639,-87.61839727431598,2013,Grocery Store
156628,1375481,mz food   more,2129740.0,grocery store,2013-11-15,41.75829331503205,-87.61535410873262,2013,Grocery Store
156637,1343575,blessing mini mart,2294422.0,grocery store,2013-11-21,41.87224985090264,-87.72766798382456,2013,Grocery Store
156657,1375666,seamos felices,2179770.0,grocery store,2013-11-19,41.968439078876,-87.72008800315973,2013,Grocery Store
156679,1107004,romanian kosher sausage co,4025.0,grocery store,2013-12-04,42.01267850243645,-87.67479303634131,2013,Grocery Store
156682,1375756,the pita house bakery,1986258.0,grocery store,2013-12-02,41.96827375769163,-87.7150390070548,2013,Grocery Store
156719,1329627,super save grocery,28571.0,grocery store,2013-11-25,41.93824594902652,-87.78338149816744,2013,Grocery Store
156732,1324790,bond drug company of ill  1068,18653.0,grocery store,2013-11-15,41.88457397692592,-87.63508282967,2013,Grocery Store
156739,1092724,7 eleven  33875h,2289157.0,grocery store,2013-11-19,41.92512074163125,-87.66247715259199,2013,Grocery Store
156752,1072693,excel,1519259.0,grocery store,2013-12-10,41.73648032953556,-87.65320973689802,2013,Grocery Store
156802,1372273,garrett popcorn shops,1974419.0,grocery store,2013-11-15,41.8880742810662,-87.63495520292739,2013,Grocery Store
156811,1367417,chicago central park food mart,1123251.0,grocery store,2013-11-22,41.89556635438464,-87.71674269615781,2013,Grocery Store
156812,1391281,cvs pharmacy  3742,1675887.0,grocery store,2013-11-25,41.88908714541623,-87.6320084936841,2013,Grocery Store
156821,1329646,walgreens  5121,18759.0,grocery store,2013-12-09,41.94567362501872,-87.77547129108139,2013,Grocery Store
156832,1151805,family dollar store  7050,1695111.0,grocery store,2013-11-14,41.74154463439204,-87.72180566243782,2013,Grocery Store
156833,1367448,new food market  inc ,2147081.0,grocery store,2013-12-19,41.879978065342975,-87.77458167013508,2013,Grocery Store
156839,1115200,afc sushi  jewel osco  3345,1516497.0,grocery sushi prep ,2013-12-23,41.86672435405559,-87.62596114837754,2013,Grocery Store
156848,1387288,7 eleven  35750h,2138608.0,grocery store,2013-12-10,41.911442870211495,-87.67933447184733,2013,Grocery Store
156870,1375995,n e fruits,5510.0,grocery store,2013-12-11,41.99033663915913,-87.70753441470691,2013,Grocery Store
156922,1072695,saveway supermarket,2189571.0,grocery store,2013-12-12,41.77954376089357,-87.66552258516764,2013,Grocery Store
156937,1375879,target store t2781,2189184.0,grocery store,2013-12-05,41.877720207180666,-87.6546900011066,2013,Grocery Store
156945,1376145,candyality ltd ,1875308.0,grocery store,2013-12-19,41.9442251832709,-87.66379230184032,2013,Grocery Store
156970,1319988,family food mart,1301398.0,grocery store,2013-12-20,41.749362768013256,-87.60533298101136,2013,Grocery Store
156994,1376122,up town produce  inc ,2299262.0,grocery store,2013-12-18,41.965027342454725,-87.6611598807866,2013,Grocery Store
156995,1343576,springfield food mart,2102742.0,grocery store,2013-12-02,41.84621314869149,-87.72231059162951,2013,Grocery Store
157008,1376037,111 th food   cellular  inc,2125455.0,grocery store,2013-12-13,41.692638562810416,-87.61238749553249,2013,Grocery Store
157011,1375566,a k food market  inc ,2013240.0,grocery store,2013-11-20,41.74456966035583,-87.6051967898045,2013,Grocery Store
157015,1367425,tofi food market inc,2031647.0,grocery store,2013-11-27,41.87495722969212,-87.74491858305608,2013,Grocery Store
157016,1236100,seaworld food market inc,36443.0,grocery store,2013-11-15,41.97336592094152,-87.65904238512795,2013,Grocery Store
157023,1072704,loomis food market,2004423.0,grocery store,2013-12-19,41.76871573470448,-87.6589218559854,2013,Grocery Store
157031,1228351,silver state city food company,1423780.0,grocery store,2013-12-06,41.84847671017228,-87.63204932781976,2013,Grocery Store
157045,1329639,aswaq kan zaman,2252970.0,grocery store,2013-12-05,41.95230949839922,-87.80739896000573,2013,Grocery Store
157085,1296729,commercial grocery,56894.0,grocery store,2013-12-12,41.713497843474286,-87.55073310658338,2013,Grocery Store
157087,1376149,target store  t 2344,1915681.0,grocery store,2013-12-20,41.67812041266304,-87.66263902716186,2013,Grocery Store
157105,1367423,neighborhood supermarket inc,1479935.0,grocery store,2013-11-26,41.87297585378775,-87.76144998426264,2013,Grocery Store
157113,1391280,cvs pharmacy  0788,1621314.0,grocery store,2013-11-25,41.89005068195419,-87.63722635541548,2013,Grocery Store
157119,1151874,dulceria acapulco,1942734.0,grocery store,2013-12-11,41.85369311668322,-87.69535819955435,2013,Grocery Store
157125,1329647,jay s food   liquor inc,26782.0,grocery store,2013-12-09,41.976400809838864,-87.78800422630542,2013,Grocery Store
157133,1387308,marathon fuel   mini mart,2304092.0,grocery store,2013-12-30,41.882211292040566,-87.7108986080365,2013,Grocery Store
157141,1375638,the warehouse,1843355.0,grocery store,2013-11-25,41.67798600172843,-87.63620085513435,2013,Grocery Store
157154,1375581,carniceria jimenez inc,1693.0,grocery store,2013-11-21,41.909925247057885,-87.73155721632436,2013,Grocery Store
157163,1376166,lockwood food mart  inc ,2299203.0,grocery store,2013-12-23,41.90233017044402,-87.75831293619554,2013,Grocery Store
157172,1389246,martin s mini market  corp,2026773.0,grocery store,2013-11-15,41.94982575705046,-87.74705804063947,2013,Grocery Store
157196,1174651,dominick s  147 1147,41674.0,grocery store,2013-12-03,41.864521193743535,-87.63930409963562,2013,Grocery Store
157223,1367404,heaven s foods,2059598.0,grocery store,2013-11-19,41.88051171710117,-87.73451467580853,2013,Grocery Store
157233,1375803,edvan s  food,2113844.0,grocery store,2013-11-29,41.96576550640021,-87.6865212714869,2013,Grocery Store
157243,1319925,mr g s food   liquor,1429.0,grocery store,2013-11-22,41.789429857455325,-87.61784033976139,2013,Grocery Store
157245,1228220,aji ichiban store,1816440.0,grocery store,2013-10-03,41.85397172847855,-87.63433457015086,2013,Grocery Store
157263,1228389,don tony s food store,1119389.0,grocery store,2013-12-18,41.8141543948973,-87.66628065812077,2013,Grocery Store
157280,1383230,7 eleven  33956a,1889035.0,grocery store,2013-11-14,41.91747358536286,-87.66734009577607,2013,Grocery Store
157295,1387282,pepe s   2 food   liquor,46863.0,grocery store,2013-12-05,41.92430014039961,-87.68747716216569,2013,Grocery Store
157316,1376143,supermercado garibaldi,2102875.0,grocery store,2013-12-19,41.96896366035677,-87.67168512030054,2013,Grocery Store
157319,1155170,rayyan food  inc ,2027317.0,grocery store,2013-11-21,41.68517594450479,-87.62582846038941,2013,Grocery Store
157328,1319938,a   k b p,1741974.0,grocery store,2013-11-29,41.7751408577419,-87.58644197169433,2013,Grocery Store
157347,1375426,godiva chocolatier,1816996.0,grocery store,2013-11-14,41.898079920503314,-87.6239457056618,2013,Grocery Store
157370,1151896,moroleon foods  2 inc ,1801622.0,grocery store,2013-12-17,41.81577111582739,-87.68938589725278,2013,Grocery Store
157372,1391273,seattle sutton s healthy eating,1273573.0,grocery store,2013-11-21,41.90565114341531,-87.63018375722896,2013,Grocery Store
157382,1391276,walgreens   07630,1514574.0,grocery store,2013-11-22,41.9000378802844,-87.62814584666361,2013,Grocery Store
157413,1115140,warehouse liquors,1122922.0,grocery store,2013-11-18,41.873665507986445,-87.62612547903451,2013,Grocery Store
157434,1367450,greenline food,1493766.0,grocery store,2013-12-20,41.88676297672283,-87.75543709973353,2013,Grocery Store
157465,1375778,fresh casita,2298193.0,grocery store,2013-12-03,41.96896366035677,-87.67168512030054,2013,Grocery Store
157522,1375653,63rd foods mart  2  inc ,2294463.0,grocery store,2013-11-25,41.778896937925,-87.70075757526037,2013,Grocery Store
157548,1324785,cvs pharmacy  5768,1336760.0,grocery store,2013-11-13,41.87961626801739,-87.63976452343368,2013,Grocery Store
157570,1324786,cvs pharmacy  2934,1171420.0,grocery store,2013-11-14,41.88332032744177,-87.63415724127063,2013,Grocery Store
157575,1375494,ashtar  market,2003351.0,grocery store,2013-11-18,41.99761554442444,-87.70273035752693,2013,Grocery Store
157603,1106995,mexico u s a  inc ,2157121.0,grocery store,2013-11-21,41.9831266531049,-87.71289895452085,2013,Grocery Store
157606,1151852,el ranchito food,1383420.0,grocery store,2013-12-05,41.74137416696124,-87.72150639395679,2013,Grocery Store
157619,1236122,7 eleven  33732a,1963533.0,grocery store,2013-11-27,41.9835594257736,-87.65738202407279,2013,Grocery Store
157650,1107011,world fresh market,1492163.0,grocery store,2013-12-06,41.997817925956696,-87.69125188556993,2013,Grocery Store
157652,1228325,mayflower food,1168793.0,grocery store,2013-11-18,41.85426530391589,-87.6321895067634,2013,Grocery Store
157670,1106983,roberts fish market,1142960.0,grocery store,2013-11-18,41.997614065860645,-87.70281474950835,2013,Grocery Store
157689,1072683,village food market inc ,70387.0,grocery store,2013-12-04,41.75018330757726,-87.66822885155746,2013,Grocery Store
157692,1329660,menard food market  inc,2059764.0,grocery store,2013-12-12,41.93862238762064,-87.7712206922148,2013,Grocery Store
157697,1324843,cvs pharmacy  8731,1695282.0,grocery store,2013-12-20,41.88200785877847,-87.63824540361531,2013,Grocery Store
157699,1387302,lock wood food mart,1646100.0,grocery store,2013-12-20,41.90233017044402,-87.75831293619554,2013,Grocery Store
157719,1072688,e mni mart  inc ,2298364.0,grocery store,2013-12-09,41.784727660229166,-87.66420141163329,2013,Grocery Store
157728,1319929,67th one stop food   liquor  inc ,15187.0,grocery store,2013-11-25,41.77342281569598,-87.58833686934243,2013,Grocery Store
157755,1375516,morgan bp,2293969.0,grocery store,2013-11-18,41.73654360033834,-87.6486434256891,2013,Grocery Store
157759,1072711,mobile,2027224.0,grocery store,2013-12-23,41.76278384194664,-87.68333690607514,2013,Grocery Store
157766,1072709,hoyne discount  inc,2163247.0,grocery store,2013-12-20,41.75009532509183,-87.67527919957801,2013,Grocery Store
157815,1389291,butcher block specialties  inc,2142494.0,grocery store,2013-12-20,41.9358159257352,-87.74661869715355,2013,Grocery Store
157842,1072700,sharif s food   liquors inc ,13502.0,grocery store,2013-12-16,41.78520789016766,-87.65479262521927,2013,Grocery Store
157849,1367443,ben salem food market,2037207.0,grocery store,2013-12-06,41.89559643977156,-87.71353997898876,2013,Grocery Store
157877,1367411,sam s mart,2203026.0,grocery store,2013-11-21,41.87869416787812,-87.72545342777866,2013,Grocery Store
157892,1383323,7 eleven  33734h,2289063.0,grocery store,2013-12-20,41.90854443090839,-87.67755694145295,2013,Grocery Store
157896,1376193,jola   hetman deli  ltd ,1620210.0,grocery store,2013-12-27,41.93848955137405,-87.76457722521602,2013,Grocery Store
157908,1389240,lisa s food market,2189307.0,grocery store,2013-11-14,41.93442035594334,-87.72719900544665,2013,Grocery Store
157933,1389239,windy city produce mart,14107.0,grocery store,2013-11-14,41.94200266637916,-87.72741980782736,2013,Grocery Store
157942,1375771,ameera food,2262476.0,grocery store,2013-12-02,41.99821714564664,-87.68975169767252,2013,Grocery Store
157949,1375853,san miguel,2069077.0,grocery store,2013-12-05,41.84232306101153,-87.71244395700559,2013,Grocery Store
157968,1389293,optimal deli  inc,1991322.0,grocery store,2013-12-23,41.94589510086973,-87.75664585225653,2013,Grocery Store
157978,1072697,rainbow x o,1891734.0,grocery store,2013-12-12,41.764859382425385,-87.66394017630476,2013,Grocery Store
157988,1228321,wallace foods corporation,1245990.0,grocery store,2013-11-15,41.82543370449723,-87.64125252754087,2013,Grocery Store
158012,1151659,south loop pantry,1965076.0,grocery store,2013-09-23,41.858437772179165,-87.6240934145977,2013,Grocery Store
158038,1354199,la tiendita foodmart,2278666.0,grocery store,2013-08-12,41.77892076250485,-87.69914649328393,2013,Grocery Store
158039,1391269,cvs pharmacy  2981,1473390.0,grocery store,2013-11-21,41.90398663767977,-87.62853057119635,2013,Grocery Store
158040,1324794,one stop mart,2185375.0,grocery store,2013-11-19,41.87800659305067,-87.63396690974706,2013,Grocery Store
158056,1391261,walgreens  1375,18404.0,grocery store,2013-11-15,41.90401477600578,-87.63013571818895,2013,Grocery Store
158075,1305470,relay  4172,1403723.0,grocery store,2013-12-13,41.78783563115532,-87.74127655955658,2013,Grocery Store
158084,1367451,sanford food inc,18936.0,grocery store,2013-12-20,41.88934524773281,-87.75524955619295,2013,Grocery Store
158109,1106988,moshe  s new york kosher sausag,20891.0,grocery store,2013-11-19,41.99762587271851,-87.70214009720418,2013,Grocery Store
158110,1329643,the cellar,1574603.0,grocery store,2013-12-06,41.93661313284872,-87.80684752110089,2013,Grocery Store
158118,1389243,irving pulaski shell station,3679.0,grocery store,2013-11-14,41.95375687447515,-87.72769851312907,2013,Grocery Store
158121,1389286,buenos aires liquor   deli,38274.0,grocery store,2013-12-16,41.93704484795919,-87.74696412539859,2013,Grocery Store
158138,1319966,citgo gas,1357919.0,grocery store,2013-12-12,41.77313937105805,-87.6249913991379,2013,Grocery Store
158158,1383330,carniceria guanajuato,2069477.0,grocery store,2013-12-23,41.92418914583158,-87.75822974122624,2013,Grocery Store
158170,1389256,daveed liquor   food,35421.0,grocery store,2013-11-21,41.96129692086515,-87.70818823321862,2013,Grocery Store
158197,1228388,al king market  inc,2299524.0,grocery store,2013-12-17,41.79845485182581,-87.67457880520111,2013,Grocery Store
158199,920435,tony s quick food mart,2192803.0,grocery store,2013-11-26,41.75853084269696,-87.61446199533826,2013,Grocery Store
158215,1375540,life spring health food,50537.0,grocery store,2013-11-19,41.93970516259879,-87.65065013413742,2013,Grocery Store
158227,1228339,dominick s   1100,41629.0,grocery store,2013-11-26,41.836468347729024,-87.66556690213167,2013,Grocery Store
158246,1319920,save a lot  882,2079367.0,grocery store,2013-11-21,41.78032161011687,-87.61713538037563,2013,Grocery Store
158248,1375656,63rd foods mart  1  inc ,2146418.0,grocery store,2013-11-25,41.778896937925,-87.70075757526037,2013,Grocery Store
158249,1367435,super low meat market  inc ,2120607.0,grocery store,2013-12-03,41.89501920235607,-87.75811787579656,2013,Grocery Store
158260,1372271,walgreens  3072,18689.0,grocery store,2013-11-14,41.89363229380721,-87.63103000830463,2013,Grocery Store
158271,1383329,what s your budget,2299141.0,grocery store,2013-12-20,41.90975214545993,-87.72810094712428,2013,Grocery Store
158282,1375568,harlem newstand,2284193.0,grocery store,2013-11-20,41.98221573286358,-87.80708846765953,2013,Grocery Store
158308,1376077,7 eleven inc ,2289023.0,grocery store,2013-12-17,41.93767057742731,-87.64417359247956,2013,Grocery Store
158309,1375522,grand food   liquor mart,1997695.0,grocery store,2013-11-19,41.89169611206325,-87.6341459050355,2013,Grocery Store
158314,1389289,cicero deli inc ,20884.0,grocery store,2013-12-18,41.93904667004596,-87.74702196554512,2013,Grocery Store
158371,1383305,dollar station,2278147.0,grocery store,2013-12-11,41.90975214545993,-87.72810094712428,2013,Grocery Store
158375,1375559,dollar general  14614,2262737.0,grocery store,2013-11-20,41.70717395149417,-87.6314024214215,2013,Grocery Store
158378,1367437,key food chicago,2008865.0,grocery store,2013-12-04,41.87495722969212,-87.74491858305608,2013,Grocery Store
158386,1228379,fat lee grocery store,1647439.0,grocery store,2013-12-13,41.85164923388343,-87.63183832330219,2013,Grocery Store
158409,1296728,walgreens   06238,1197743.0,grocery store,2013-12-12,41.72236397608408,-87.57489876983635,2013,Grocery Store
158428,1343563,express discount store  inc ,2293269.0,grocery store,2013-11-15,41.88019235442935,-87.76056475660084,2013,Grocery Store
158432,1376190,supermercado chapala,32236.0,grocery store,2013-12-27,42.01197579951184,-87.67438405776932,2013,Grocery Store
158442,1199221,osco drug  2502,2293796.0,grocery store,2013-12-03,41.92787172311833,-87.67325881463049,2013,Grocery Store
158449,1228358,rubi grocery,2054919.0,grocery store,2013-12-09,41.80123959131233,-87.66240487723034,2013,Grocery Store
158474,1389284,tierra santa inc,2059662.0,grocery store,2013-12-13,41.96080286499475,-87.73083735124534,2013,Grocery Store
158507,1324788,walgreens  04349,18717.0,grocery store,2013-11-14,41.88183546590967,-87.63389738860116,2013,Grocery Store
158537,1072701,aldi  88,2079745.0,grocery store,2013-12-16,41.73989670562101,-87.63208906523245,2013,Grocery Store
158543,1393251,grandslam marathon,2041783.0,grocery store,2013-12-12,41.93878145947897,-87.68775521476529,2013,Grocery Store
158544,1367418,edgar s place,2115126.0,grocery store,2013-11-22,41.895292084430416,-87.72234938942286,2013,Grocery Store
158545,1151822,sweet food   gifts,1739772.0,grocery store,2013-11-20,41.83292644959862,-87.64630325043836,2013,Grocery Store
158560,1319978,nelson s mini mart,2108434.0,grocery store,2013-12-17,41.78408593235502,-87.61049110267204,2013,Grocery Store
158578,1375468,cregendo saludable,1979340.0,grocery store,2013-11-15,41.79378047274624,-87.69496027657335,2013,Grocery Store
158589,1345692,7 eleven  33582b,2055575.0,grocery store,2013-11-25,41.88583768769826,-87.62591897202392,2013,Grocery Store
158614,1343569,jasmin food,2294410.0,grocery store,2013-11-19,41.87876156735198,-87.72545565871442,2013,Grocery Store
158620,1199245,menard s,2289507.0,grocery store,2013-12-10,41.928837384912974,-87.67397131999374,2013,Grocery Store
158636,1329616,mare s mini mart   deli,1475534.0,grocery store,2013-11-15,41.94521257883548,-87.82372778017668,2013,Grocery Store
158717,1375877,fuzziwig s candy factory,2152018.0,grocery store,2013-12-05,41.9330132475348,-87.6452287444637,2013,Grocery Store
158748,1389269,tulcingo  plaza,2003608.0,grocery store,2013-11-27,41.954815177189246,-87.72779753099908,2013,Grocery Store
158763,1391300,munchies convenience,2102590.0,grocery store,2013-12-05,41.90046290693005,-87.63746817234774,2013,Grocery Store
158767,1329644,peerless trading corp,9803.0,grocery store,2013-12-06,41.96755892091478,-87.77608297023237,2013,Grocery Store
158779,1375878,one stop shop grocery  inc ,2284817.0,grocery store,2013-12-05,41.706991857937496,-87.64662641289908,2013,Grocery Store
158799,1151867,halsted bp,1943373.0,grocery store,2013-12-11,41.83847683503394,-87.64614167073715,2013,Grocery Store
158802,1319940,bp,1998277.0,grocery store,2013-11-29,41.80283112007079,-87.58659252529138,2013,Grocery Store
158838,1072674,a lot to save food,2179596.0,grocery store,2013-11-26,41.779495714401854,-87.65481856464251,2013,Grocery Store
158847,1345658,7 eleven  34724j,2283774.0,grocery store,2013-11-14,41.883970468541214,-87.63257344018365,2013,Grocery Store
158850,1389241,belmont kostner union 76,7426.0,grocery store,2013-11-14,41.93885244077729,-87.73698057195097,2013,Grocery Store
158857,1375589,the gourmet grape,2179747.0,grocery store,2013-11-21,41.94632229643331,-87.64960234672562,2013,Grocery Store
158864,1319945,marthon gas   food mart,1141779.0,grocery store,2013-12-03,41.80919351320132,-87.62297930641978,2013,Grocery Store
158871,1375507,mercado mexicano,2252812.0,grocery store,2013-11-18,41.84417514429002,-87.72204721914427,2013,Grocery Store
158895,1236116,ishtar  market,2157975.0,grocery store,2013-11-25,41.99761554442444,-87.70273035752693,2013,Grocery Store
158906,1376100,music box theatre,2288930.0,grocery store,2013-12-18,41.9498572587634,-87.66394689129923,2013,Grocery Store
158942,1391293,kesh foods,1444277.0,grocery store,2013-12-02,41.89865217853064,-87.62839997352812,2013,Grocery Store
158973,1151801,belli s,2279461.0,grocery store,2013-11-14,41.85783164572629,-87.6571634171914,2013,Grocery Store
158981,1329617,convenient etc,63419.0,grocery store,2013-11-15,41.947794306653776,-87.80694664655346,2013,Grocery Store
158994,1228376,hong kong seafood city  inc ,1767514.0,grocery store,2013-12-12,41.85399063972469,-87.63275726210783,2013,Grocery Store
159027,1199220,jewel food store  2502,2293797.0,grocery store,2013-12-03,41.92787172311833,-87.67325881463049,2013,Grocery Store
159043,1151818,la potosina grocery,2026819.0,grocery store,2013-11-19,41.85035962181883,-87.68326750980562,2013,Grocery Store
159127,1343557,la azteca mini market inc ,1926415.0,grocery store,2013-11-14,41.842403950499424,-87.71855052411769,2013,Grocery Store
159133,1375923,park foods of 71st street inc ,1677517.0,grocery store,2013-12-09,41.764717138882325,-87.68875098149924,2013,Grocery Store
159194,1345657,7 eleven  34724a,2179919.0,grocery store,2013-11-14,41.883970468541214,-87.63257344018365,2013,Grocery Store
159238,1375743,save a lot  885,2079375.0,grocery store,2013-12-02,41.76881945592184,-87.65193404080411,2013,Grocery Store
159257,1367456,k town food i  inc,2064310.0,grocery store,2013-12-26,41.87502775205632,-87.73542837787184,2013,Grocery Store
159314,1383242,7 eleven  33328c,2113331.0,grocery store,2013-11-19,41.90725859639066,-87.67281319045203,2013,Grocery Store
159340,1376120,plaza food   liquor,8776.0,grocery store,2013-12-18,41.85526590922669,-87.71240156240032,2013,Grocery Store
159390,1376123,frank food  4,1767467.0,grocery store,2013-12-18,41.85714095488576,-87.70526116851221,2013,Grocery Store
159398,1376108,brisa foods inc ,1477966.0,grocery store,2013-12-18,41.92089527941537,-87.71213410245794,2013,Grocery Store
159405,1387285,w  crossings grocer,1948288.0,grocery store,2013-12-06,41.91055142102059,-87.67979335805668,2013,Grocery Store
159416,1393239,adrian s foods market  2 inc ,2184373.0,grocery store,2013-12-04,41.9612695269616,-87.71063122896197,2013,Grocery Store
159425,1343574,joy mini mart,2137329.0,grocery store,2013-11-21,41.87224985090264,-87.72766798382456,2013,Grocery Store
159485,1375765,parkside food store inc,60656.0,grocery store,2013-12-02,41.7724435945988,-87.65425192159404,2013,Grocery Store
159487,1375663,cleopatra meat   grocery,64578.0,grocery store,2013-11-19,41.96486826553557,-87.70821365991304,2013,Grocery Store
159521,1376007,osco drug  3376,2271444.0,grocery store,2013-12-12,41.88891817356032,-87.64447797292972,2013,Grocery Store
159534,1367461,west side corner store  inc,2183610.0,grocery store,2013-12-30,41.87301726926058,-87.72555236706093,2013,Grocery Store
159542,1375967,look in  grocery   deli,2192553.0,grocery store,2013-12-10,41.858868389257495,-87.73277498059485,2013,Grocery Store
159587,1367458,convenience for you,2130381.0,grocery store,2013-12-27,41.88021179645035,-87.75905986096278,2013,Grocery Store
159611,1329626,cvs pharmacy  5482,1964598.0,grocery store,2013-11-25,41.94633638555284,-87.76662508180324,2013,Grocery Store
159621,1372278,300 convenience,2120131.0,grocery store,2013-11-18,41.887528639656935,-87.63264683652446,2013,Grocery Store
159731,1319975,aldi,1922075.0,grocery store,2013-12-16,41.77430588118815,-87.6056480253388,2013,Grocery Store
159736,1375768,big sams food   cellular,2069454.0,grocery store,2013-12-02,41.67782162100153,-87.63112680451549,2013,Grocery Store
159757,1376087,roosevelt food   dollar,1355985.0,grocery store,2013-12-17,41.866313672773465,-87.72287642386448,2013,Grocery Store
159765,1375808,h   m food mart,64817.0,grocery store,2013-12-03,41.73064129109383,-87.60452987310461,2013,Grocery Store
159773,1395213,homan fresh meat market  inc ,2304107.0,grocery store,2013-12-30,41.85644544341349,-87.71010292269318,2013,Grocery Store
159783,1383343,zozo,2158217.0,grocery store,2013-12-27,41.93178164211677,-87.71863201286443,2013,Grocery Store
159815,1391284,marina food   liquor,1143291.0,grocery store,2013-11-26,41.88755787281287,-87.62815306467208,2013,Grocery Store
159818,1319986,chatham meat market,2065139.0,grocery store,2013-12-20,41.74307143762398,-87.60486143722804,2013,Grocery Store
159840,1296734,walgreens  02387,1740300.0,grocery store,2013-12-16,41.73703983105779,-87.58447691192603,2013,Grocery Store
159841,1228390,wing lee co,1739798.0,grocery store,2013-12-18,41.85154392394672,-87.63212972989326,2013,Grocery Store
159854,1151891,meztisoy food market,2299440.0,grocery store,2013-12-16,41.85761819384384,-87.67092700126422,2013,Grocery Store
159869,1391303,chicago orleans foodmart,1677420.0,grocery store,2013-12-05,41.89665338076949,-87.637681658139,2013,Grocery Store
159884,1345664,rise n roll bakery,2003956.0,grocery store,2013-11-15,41.88095082939631,-87.63100546948652,2013,Grocery Store
159907,1375642,supermercado el guero  10 inc,39978.0,grocery store,2013-11-25,41.82058304065872,-87.69342616596236,2013,Grocery Store
159920,1367449,jimmy s food,2108596.0,grocery store,2013-12-17,41.8854288305924,-87.72565727080126,2013,Grocery Store
159987,1375613,lindo michoacan,42744.0,grocery store,2013-11-22,41.96857277212391,-87.70778770127195,2013,Grocery Store
160030,1375610,groceries flores,1958619.0,grocery store,2013-11-22,41.79906963097107,-87.6940941032688,2013,Grocery Store
160032,1376015,dice food mart,2093638.0,grocery store,2013-12-12,41.89194263700593,-87.71248780539938,2013,Grocery Store
160038,1376066,olivia s market,1443829.0,grocery store,2013-12-16,41.91240363849448,-87.67816498544441,2013,Grocery Store
160067,1115150,trader joe s  701,2060013.0,grocery store,2013-11-25,41.867867090171096,-87.62568684119313,2013,Grocery Store
160103,1389279,laramie bakery   deli,11587.0,grocery store,2013-12-11,41.93544657128771,-87.75671871371809,2013,Grocery Store
160112,1367429,madison mini mart,2162235.0,grocery store,2013-12-02,41.88049014080993,-87.75443273133736,2013,Grocery Store
160119,1151871,teleoloapan grocery,2088709.0,grocery store,2013-12-11,41.85376588735061,-87.69536059861551,2013,Grocery Store
160143,1106974,newleaf natural grocery inc,1356130.0,grocery store,2013-11-14,42.00128578331998,-87.66319202639765,2013,Grocery Store
160163,1383307,m  l  k  convenient store,2298983.0,grocery store,2013-12-13,41.90949904495798,-87.76471097912471,2013,Grocery Store
160167,1383245,dominick s finer foods   store   2775,1820382.0,grocery store,2013-11-20,41.89578522959797,-87.67793089259229,2013,Grocery Store
160201,1375876,morrocco s,1884903.0,grocery store,2013-12-05,41.73141065034323,-87.60484189391822,2013,Grocery Store
160216,1375946,7 eleven  26210j,2041899.0,grocery store,2013-12-09,41.99792158092283,-87.68507479988922,2013,Grocery Store
160235,1319903,save a lot   862,1353496.0,grocery store,2013-11-14,41.80948924653102,-87.60641742939396,2013,Grocery Store
160255,1151894,carniceria la hacienda no 2 inc,2298253.0,grocery store,2013-12-17,41.77868471619929,-87.71425166330465,2013,Grocery Store
160256,1329623,max s food   liquor,1959214.0,grocery store,2013-11-21,41.93849347975001,-87.78119682742441,2013,Grocery Store
160260,1155167,express food mart   cellular,2079148.0,grocery store,2013-11-19,41.692573148327895,-87.62805289398561,2013,Grocery Store
160278,1367431,three brothers food mart  2,2196078.0,grocery store,2013-12-03,41.8852926316512,-87.7112859071666,2013,Grocery Store
160296,1319968,jardan food   liquor,11226.0,grocery store,2013-12-12,41.7943249341336,-87.61852060527603,2013,Grocery Store
160311,1391287,superior liquor   wine,12835.0,grocery store,2013-11-27,41.89639085079796,-87.63138841604902,2013,Grocery Store
160341,1324791,123 concession shop,1273598.0,grocery store,2013-11-15,41.88374821694136,-87.6366618383099,2013,Grocery Store
160382,1376175,bharat bazaar,1225441.0,grocery store,2013-12-24,41.96837595470103,-87.72566094178205,2013,Grocery Store
160384,1375867,16th st food mart,1845450.0,grocery store,2013-12-05,41.85907437985173,-87.71590916063465,2013,Grocery Store
160399,1329589,safa market,2283942.0,grocery store,2013-11-04,41.99764733751051,-87.68826118291257,2013,Grocery Store
160401,1072496,englewood market,2013410.0,grocery store,2013-08-19,41.78345130683472,-87.65445294657616,2013,Grocery Store
160409,1151671,save a lot,1842450.0,grocery store,2013-09-30,41.83214360513917,-87.64628396417302,2013,Grocery Store
160410,1286334,jewel food store  3241,1398.0,grocery store,2013-10-02,41.90624370308496,-87.6698622812847,2013,Grocery Store
160415,1151736,supermercado rivera inc ,2245326.0,grocery store,2013-10-21,41.80058537744086,-87.73208608412753,2013,Grocery Store
160418,1360749,j   h food   liquor,1301332.0,grocery store,2013-09-09,41.9849755548221,-87.66922749215854,2013,Grocery Store
160422,1360465,las gemelas fruit market,2283141.0,grocery store,2013-08-22,41.93137063973293,-87.71141818329198,2013,Grocery Store
160442,1360672,winston s sausage  inc ,1493363.0,grocery store,2013-09-04,41.7783476790774,-87.73990608038208,2013,Grocery Store
160450,1367251,austin food mart,2230585.0,grocery store,2013-09-09,41.89476941876594,-87.76197389292327,2013,Grocery Store
160455,1319784,53rd street mini mart,2288869.0,grocery store,2013-09-24,41.79940096015173,-87.59191139391835,2013,Grocery Store
160457,1343453,super 7 food   liquor,2283435.0,grocery store,2013-09-13,41.86443509650306,-87.70546338183142,2013,Grocery Store
160479,1188716,carniceria sol de guerrero  inc ,1819883.0,grocery store,2013-09-23,41.931352870656816,-87.768740112349,2013,Grocery Store
160484,1236071,hoa nom co,8425.0,grocery store,2013-11-05,41.973161299916654,-87.65783317955584,2013,Grocery Store
160485,1228133,stewart liquors inc,7208.0,grocery store,2013-09-03,41.7581900395508,-87.63434463773741,2013,Grocery Store
160489,1345647,7 eleven  33705,1842592.0,grocery store,2013-11-07,41.878223241518086,-87.63424737951088,2013,Grocery Store
160495,1361149,los sauces grocery,1223250.0,grocery store,2013-09-23,41.93128820014796,-87.77324145325423,2013,Grocery Store
160496,1369242,m   a food  inc ,2196184.0,grocery store,2013-09-26,41.75144735742037,-87.60040011791487,2013,Grocery Store
160501,1370079,granville fruits,30446.0,grocery store,2013-10-30,41.994458784776384,-87.65894716636456,2013,Grocery Store
160514,1199165,big apple finer foods inc,4900.0,grocery store,2013-10-28,41.924966179088,-87.63992601896568,2013,Grocery Store
160515,1236084,bangkok video   grocery inc,58047.0,grocery store,2013-11-07,41.96582746653935,-87.66670355627426,2013,Grocery Store
160516,1228093,hong kong market,1892499.0,grocery store,2013-08-09,41.84823716592543,-87.64095552751985,2013,Grocery Store
160537,1324677,7 eleven  35015h,2102784.0,grocery store,2013-09-16,41.90378983001293,-87.63151542935856,2013,Grocery Store
160545,1329526,irving shell gas and food  inc ,2277408.0,grocery store,2013-09-23,41.952643709843294,-87.79569322493121,2013,Grocery Store
160547,1296574,southside halal meat market   grocery,2164179.0,grocery store,2013-09-13,41.74724060201805,-87.5860251882879,2013,Grocery Store
160553,1099272,azur meat market,1801636.0,grocery store,2013-11-13,41.96846702189827,-87.69322013455337,2013,Grocery Store
160554,1106851,aim  food  mart  inc ,2125047.0,grocery store,2013-09-16,42.01949400239256,-87.67288403726388,2013,Grocery Store
160558,1228142,francisco pollo vivo,1772459.0,slaughter house  grocery,2013-09-05,41.82525518173788,-87.66572756993531,2013,Grocery Store
160561,1228269,chicago food market inc,19708.0,grocery store,2013-10-30,41.85159571994642,-87.6318369065422,2013,Grocery Store
160580,1369781,jewel food store  3344,1192905.0,grocery store,2013-10-18,41.86625417614275,-87.66652414013105,2013,Grocery Store
160588,1360229,richmond food   liquors,2247219.0,grocery store,2013-08-13,41.78623149690164,-87.69764916274501,2013,Grocery Store
160595,1092553,7 eleven  33508c,2064170.0,grocery store,2013-08-16,41.9211783836129,-87.66357938528952,2013,Grocery Store
160597,1361053,baba s food mart  inc ,2284907.0,grocery store,2013-09-19,41.76892629684455,-87.64465599703081,2013,Grocery Store
160598,1072627,24 7 convenient food mart,2152577.0,grocery store,2013-10-24,41.775449401449336,-87.68368953891188,2013,Grocery Store
160606,1099268,a z things,2293704.0,grocery store,2013-11-04,41.95423825147382,-87.70787781706284,2013,Grocery Store
160613,1151704,rockwell mini mart  inc,2078871.0,grocery store,2013-10-10,41.82187729803985,-87.6898539395397,2013,Grocery Store
160617,1166383,convenience store,1998125.0,grocery store,2013-08-28,41.93973175303287,-87.71266537793763,2013,Grocery Store
160618,1370124,cardenas produce,86612.0,grocery store,2013-10-31,41.68925755749308,-87.60848842768043,2013,Grocery Store
160623,1324691,jewel food store  3210,1333.0,grocery store,2013-09-24,41.90426522825603,-87.63160329458951,2013,Grocery Store
160641,1361345,la esquinita del sabor,1979234.0,grocery store,2013-09-17,41.90125935952566,-87.69203326341109,2013,Grocery Store
160660,1151690,e z food mart,2230594.0,grocery store,2013-10-07,41.75019778268168,-87.66721977086333,2013,Grocery Store
160674,1139098,treasure island foods inc,1303.0,grocery store,2013-08-27,41.90302613678393,-87.6313487721985,2013,Grocery Store
160675,1343473,bethlehem food market  inc ,2288694.0,grocery store,2013-09-24,41.85172137506997,-87.70078598465724,2013,Grocery Store
160678,1115104,gateway news stands,2088648.0,grocery store,2013-10-28,41.886567370886944,-87.62438467059714,2013,Grocery Store
160680,1369280,gas center,1997934.0,grocery store,2013-09-27,41.77891322177408,-87.69971082884256,2013,Grocery Store
160688,1174631,7 eleven   33723b,2099109.0,grocery store,2013-11-07,41.88328561813559,-87.64174676077212,2013,Grocery Store
160700,1367367,african supermarket   liquor,28149.0,grocery store,2013-10-31,41.880779974868965,-87.7303060140944,2013,Grocery Store
160707,1369395,sisters food basket,2277699.0,grocery store,2013-10-01,41.75829904374156,-87.61505468423182,2013,Grocery Store
160727,1115119,jewel food  store   3345,1142451.0,grocery store,2013-11-06,41.86672435405559,-87.62596114837754,2013,Grocery Store
160735,1235990,youmax food   liquor,1975946.0,grocery store,2013-09-20,41.9979093763549,-87.68593714505292,2013,Grocery Store
160736,1387239,tonys pantry mart inc ,2129010.0,grocery store,2013-11-05,41.87144759917631,-87.70569166240126,2013,Grocery Store
160738,1370158,fernandez store,37179.0,grocery store,2013-11-04,41.81571005119633,-87.69081814480167,2013,Grocery Store
160743,1151721,c   c packing corporation,2233056.0,grocery store,2013-10-17,41.83386789950954,-87.67220635773316,2013,Grocery Store
160762,1375299,discount dollar plus,2026907.0,grocery store,2013-11-08,41.70040599217204,-87.6427775083289,2013,Grocery Store
160771,1370070,supermercado el primo,2002523.0,grocery restaurant,2013-10-30,41.92214330584142,-87.75962876544102,2013,Grocery Store
160774,1358214,ats central citgo corporation,1490449.0,grocery store,2013-08-12,41.9021910503325,-87.76550765713982,2013,Grocery Store
160778,1151526,martinez supermarket,1094990.0,grocery store,2013-08-09,41.83474332305238,-87.65091517105847,2013,Grocery Store
160780,1361280,mango liquors,2252899.0,grocery store,2013-08-22,41.90839818421591,-87.68731819750221,2013,Grocery Store
160791,1329581,first wheel marathon,37740.0,grocery store,2013-10-28,41.98324970986457,-87.69507803833417,2013,Grocery Store
160799,1228175,richwell market,1070189.0,grocery store bakery,2013-09-18,41.85665717815976,-87.63875334531697,2013,Grocery Store
160801,1228143,ashland convenience   liquor,1937167.0,grocery store,2013-09-06,41.80522165129052,-87.66502581300477,2013,Grocery Store
160805,1296673,family dollar  6083,1472867.0,grocery store,2013-11-06,41.8142270728725,-87.60652337440737,2013,Grocery Store
160837,1072524,windy city food market,2141804.0,grocery store,2013-09-03,41.7445232477591,-87.66314642176337,2013,Grocery Store
160849,1305405,snappy convenience center,1193016.0,grocery store,2013-09-12,41.82411285370147,-87.68813503587118,2013,Grocery Store
160865,1166444,dollar tree stores inc  733,1984961.0,grocery store,2013-10-07,41.95481179296105,-87.74961236710139,2013,Grocery Store
160880,1155140,rosebud farm inc,3256.0,grocery store,2013-09-09,41.65902472179736,-87.60909139773335,2013,Grocery Store
160885,1092582,7 eleven  24606,12892.0,grocery store,2013-08-28,41.92897165071963,-87.65390175680133,2013,Grocery Store
160897,1235992,urban orchard,2108206.0,grocery store,2013-09-23,41.9765926405371,-87.66855724217827,2013,Grocery Store
160901,1139100,the goddess river north,2196732.0,grocery store,2013-08-28,41.89875668638562,-87.64287886755926,2013,Grocery Store
160912,1369329,quick shop food mart,2177215.0,grocery store,2013-09-30,41.75165834497028,-87.58058412923802,2013,Grocery Store
160913,1370036,la dolorosa grocery  2,1645700.0,grocery store,2013-10-29,41.82290845958193,-87.70426021024545,2013,Grocery Store
160916,1166381,valero,2119753.0,grocery store,2013-08-27,41.93931966318777,-87.71264128508213,2013,Grocery Store
160921,920372,ray s food market,2124375.0,grocery store,2013-08-20,41.737136249680695,-87.6046896237588,2013,Grocery Store
160923,1387244,west haven market   grill,2093508.0,grocery store,2013-11-07,41.88319447242824,-87.68046649021605,2013,Grocery Store
160951,1369989,la loma,49880.0,grocery store,2013-10-25,41.92703609309985,-87.7561061829788,2013,Grocery Store
160960,1110388,east delaware pantry,39294.0,grocery store,2013-10-29,41.89935473944382,-87.621791301926,2013,Grocery Store
160963,1358218,el mercado barato inc ,2120915.0,grocery store,2013-09-04,41.93137063973293,-87.71141818329198,2013,Grocery Store
160971,1361106,tony s finer foods enterprises  inc ,1717529.0,grocery store,2013-09-20,41.95612620147909,-87.72248282629168,2013,Grocery Store
160976,1372241,jewel food store  3368,1226337.0,grocery store,2013-10-25,41.89242136613116,-87.62823487113711,2013,Grocery Store
161007,1360930,happy grocery   dollar,1986927.0,grocery store,2013-09-13,41.99446931501552,-87.65812528718237,2013,Grocery Store
161022,1358221,prestige food   liquor,16687.0,grocery store,2013-09-06,41.880176953282295,-87.76180777121401,2013,Grocery Store
161028,1092713,edible arrangements,1621741.0,grocery store,2013-11-07,41.922148363028704,-87.66492787167329,2013,Grocery Store
161030,1199107,the market place foodstore,10794.0,grocery store,2013-09-24,41.93274395710293,-87.64221884518899,2013,Grocery Store
161031,1389209,waleed trading inc ,1799916.0,grocery store,2013-10-11,41.96119493314654,-87.71666552605475,2013,Grocery Store
161043,1361270,beer run llc,2269723.0,grocery store,2013-08-16,41.89592375383504,-87.68268244196541,2013,Grocery Store
161046,1369895,dado food mart  inc ,2292996.0,grocery store,2013-10-23,41.90230474661144,-87.76065826255068,2013,Grocery Store
161066,1305392,jewel food store  3721,1225534.0,grocery store,2013-09-06,41.79435485319725,-87.77052715211342,2013,Grocery Store
161067,1345598,honey don t forget the milk grocery and deli llc,1799374.0,grocery store,2013-10-23,41.92491927408807,-87.69719653149663,2013,Grocery Store
161072,1360624,walmart  5965,2184322.0,grocery store,2013-09-03,41.69631368397275,-87.59663224393329,2013,Grocery Store
161126,1296589,sam   maz inc,2073669.0,grocery store,2013-09-23,41.75179276821392,-87.56995000081426,2013,Grocery Store
161127,1151561,sergio barajas,1870185.0,grocery store  restaurant,2013-08-19,41.85819002531755,-87.64731369351094,2013,Grocery Store
161131,1296591,star light food market ii,2113949.0,grocery store,2013-09-25,41.841604481753,-87.63191550340868,2013,Grocery Store
161137,1188744,el rodeo inc,1679441.0,grocery store,2013-10-03,41.92396900487679,-87.77371421196557,2013,Grocery Store
161139,1343481,dona maris,24874.0,grocery store,2013-09-30,41.924434563962016,-87.72173921765217,2013,Grocery Store
161147,1354197,supermercado la villa,1800261.0,grocery store,2013-08-12,41.92427271358551,-87.75211503765784,2013,Grocery Store
161188,1151782,pilsen s mini mart,2104150.0,grocery store,2013-11-05,41.85429605519712,-87.66549381668264,2013,Grocery Store
161219,1370113,jewel food store  3170,1366.0,grocery store,2013-10-31,41.796197591415535,-87.72339188344549,2013,Grocery Store
161227,1188740,j   a oriental food mart,30859.0,grocery store,2013-10-01,41.92379935453223,-87.77063323644286,2013,Grocery Store
161247,1360991,west loop mart,2284138.0,grocery store,2013-09-17,41.88568794689097,-87.65246444630944,2013,Grocery Store
161254,1375251,horizon mini market  inc ,2157009.0,grocery store,2013-11-06,41.72672451923874,-87.60473156699162,2013,Grocery Store
161262,1361408,uptown grocery  inc ,2289761.0,grocery store,2013-10-11,41.88082350051863,-87.72670696141451,2013,Grocery Store
161285,1345636,gateway newstands,2107905.0,grocery store,2013-11-05,41.8854443881431,-87.6325821348462,2013,Grocery Store
161291,1369388,joe s food mart,2050002.0,grocery store,2013-10-01,41.70637118320408,-87.64296345555924,2013,Grocery Store
161301,1072484,fresh choice grocery   merchandise,2278462.0,grocery store,2013-08-12,41.752081197063234,-87.66362443686646,2013,Grocery Store
161314,1360512,supermercado chapultepec  2,39187.0,grocery store,2013-08-27,41.81756138490994,-87.68701507432719,2013,Grocery Store
161330,1360437,west town pizza shop,2279095.0,grocery store,2013-08-22,41.91017264385976,-87.69067799640872,2013,Grocery Store
161340,1072608,citgo fuel   mini mart,2084312.0,grocery store,2013-10-17,41.74356545095727,-87.64368965493803,2013,Grocery Store
161343,1151786,los cuatro hermanos grocery,7790.0,grocery store,2013-11-06,41.85620222115556,-87.65774497241726,2013,Grocery Store
161371,1151794,guzman grocery inc ,53628.0,grocery store,2013-11-07,41.855732733397375,-87.68099466994877,2013,Grocery Store
161381,1324702,rock n roll bp,2027538.0,grocery store,2013-09-27,41.89325119846543,-87.63249301222938,2013,Grocery Store
161382,1345642,a   b convenience,85175.0,grocery store,2013-11-07,41.88458626715456,-87.63101044588599,2013,Grocery Store
161384,1361137,golo,1245773.0,grocery store,2013-09-20,41.86614210243298,-87.71918994115917,2013,Grocery Store
161390,1361043,atour foods inc,2163848.0,grocery store,2013-09-18,41.997374684834,-87.68879831778831,2013,Grocery Store
161418,1369672,south shore pantry,1221333.0,grocery store,2013-10-15,41.76639584183152,-87.57146890892194,2013,Grocery Store
161421,1360568,carniceria y fruteria,1802424.0,grocery store,2013-08-29,41.8207715298359,-87.6994068536533,2013,Grocery Store
161422,1166392,family dollar  10596,2233212.0,grocery store,2013-09-09,41.942383513445016,-87.7290108595133,2013,Grocery Store
161435,1166366,panda food   wireless,2004555.0,grocery store,2013-08-13,41.93882779458902,-87.75535516733873,2013,Grocery Store
161447,1236002,aldi s,1817903.0,grocery store,2013-09-24,41.96378896425155,-87.65660649237587,2013,Grocery Store
161467,1372258,terry s food mart  inc ,1820292.0,grocery store,2013-11-08,41.90770710177844,-87.6373750389684,2013,Grocery Store
161471,1296602,super leon,83462.0,grocery store,2013-09-27,41.7176287308732,-87.53663822715004,2013,Grocery Store
161476,1329488,la capannina coffee,44842.0,grocery store,2013-08-29,41.945016727435416,-87.81622748384773,2013,Grocery Store
161487,1383221,wicker park foodmart inc ,1822173.0,grocery store,2013-11-08,41.91014405962235,-87.67687502523692,2013,Grocery Store
161500,1343513,16th express mart,2172476.0,grocery store,2013-10-17,41.85891036405756,-87.72978213290108,2013,Grocery Store
161507,1360882,7 eleven  33067h,2278542.0,grocery store,2013-09-12,41.97693688769671,-87.76907431197014,2013,Grocery Store
161511,1360571,7447 pantry,2279500.0,grocery store,2013-08-29,41.761305471393655,-87.55770551531141,2013,Grocery Store
161515,1296527,tai ho yee food co,1271753.0,grocery store,2013-08-21,41.84842287612764,-87.63204466360924,2013,Grocery Store
161525,1329487,josephs finest meats inc,7979.0,grocery store,2013-08-29,41.945224944667125,-87.80336454810856,2013,Grocery Store
161528,1369887,three brothers food market  inc,2016906.0,grocery store,2013-10-23,41.90230474661144,-87.76065826255068,2013,Grocery Store
161532,1106857,que syrah fine wines,2252884.0,grocery store,2013-09-18,41.949373985863005,-87.66422747854159,2013,Grocery Store
161609,1329606,walgreens  4935,18765.0,grocery store,2013-11-12,41.938042230230025,-87.79609240653079,2013,Grocery Store
161628,1319730,hyde park grocery   deli  inc ,2283136.0,grocery store,2013-09-03,41.80252988698073,-87.59193633932374,2013,Grocery Store
161634,1324782,7 eleven   36881a,2289891.0,grocery store,2013-11-12,41.88525719405359,-87.63376979601067,2013,Grocery Store
161636,1360683,momo food mart,2283860.0,grocery store,2013-09-04,41.67784867927214,-87.62871899471705,2013,Grocery Store
161647,1360452,cermak produce no 3,2245439.0,grocery store,2013-08-22,41.93164142040689,-87.7467199106462,2013,Grocery Store
161649,1072509,79 food basket,1958784.0,grocery store,2013-08-26,41.75032112057248,-87.65818905291597,2013,Grocery Store
161666,1151585,costco wholesale   1107,2147714.0,grocery store,2013-08-29,41.862402424927375,-87.66641896815713,2013,Grocery Store
161686,1345536,metromart,1621099.0,grocery store,2013-09-12,41.87998851304621,-87.63068884103124,2013,Grocery Store
161696,1370037,menards,2240227.0,grocery store,2013-10-29,41.90960038601134,-87.73935646653337,2013,Grocery Store
161702,1319732,best choice oriental grocery  inc ,1802852.0,grocery store,2013-09-04,41.84905549563665,-87.63178333329273,2013,Grocery Store
161744,1151688,sunshine food mart ,1574179.0,grocery store,2013-10-07,41.76880097321221,-87.65427671389479,2013,Grocery Store
161750,1099162,food and liquor express,2269475.0,grocery store,2013-08-27,41.968644613011605,-87.69828568537154,2013,Grocery Store
161760,1367387,central park foods inc,13813.0,grocery store,2013-11-12,41.90247367378174,-87.71681746529526,2013,Grocery Store
161762,1391233,walgreen s  1171,18540.0,grocery store,2013-11-04,41.93285981738872,-87.64473245733261,2013,Grocery Store
161763,1360311,lulu food mart  inc ,2279058.0,grocery store,2013-08-16,41.7511154696891,-87.60863902482612,2013,Grocery Store
161769,1375326,the laundry bag  inc ,1680008.0,grocery store,2013-11-12,41.70727532159898,-87.62346617188196,2013,Grocery Store
161794,1343476,cermak produce no 4,69608.0,grocery store,2013-09-25,41.910132240414285,-87.6946003938662,2013,Grocery Store
161797,1389224,walgreens   04936,18753.0,grocery store,2013-10-30,41.95467940556598,-87.74748531651699,2013,Grocery Store
161814,1361048,dollar junction,2262561.0,grocery store,2013-09-18,41.77941405614786,-87.67478772951263,2013,Grocery Store
161821,1296583,tai wah grocery,28038.0,grocery store,2013-09-19,41.85212719772204,-87.6321439956803,2013,Grocery Store
161822,1296592,kiss dragon co ,1488929.0,grocery store,2013-09-25,41.84995400192252,-87.63209419559098,2013,Grocery Store
161823,1072512,vincennes food,1595681.0,grocery store,2013-08-26,41.750889068612274,-87.63429910703262,2013,Grocery Store
161844,1296644,red apple convenience,2120954.0,grocery store,2013-10-17,41.896018960386,-87.67717861550685,2013,Grocery Store
161865,1345643,lo bby newstand,1336733.0,grocery store,2013-11-07,41.88458626715456,-87.63101044588599,2013,Grocery Store
161879,1188714,honey baked ham co,4427.0,grocery store,2013-09-19,41.9394690604149,-87.70349609623281,2013,Grocery Store
161891,1367233,new stop food   tobacco,2003784.0,grocery store,2013-08-23,41.880803325267415,-87.72831805265798,2013,Grocery Store
161905,1343429,hi top convenience foods,1577466.0,grocery store,2013-09-03,41.876237161140736,-87.70093101952185,2013,Grocery Store
161908,1361083,lacabana,2284439.0,grocery store,2013-09-19,41.92759412032564,-87.775812707977,2013,Grocery Store
161912,1324692,afc sushi jewel osco  1210,1517561.0,grocery store,2013-09-24,41.90426522825603,-87.63160329458951,2013,Grocery Store
161926,1370187,la canasta snack,2152319.0,grocery store,2013-11-05,41.851745859411054,-87.698743248205,2013,Grocery Store
161939,1369240,fresh grocery  inc,2284901.0,grocery store,2013-09-26,41.68927882135494,-87.62115618968048,2013,Grocery Store
161965,1235943,old world market,7507.0,grocery store,2013-08-28,41.97547539863465,-87.65969701169435,2013,Grocery Store
161970,1166375,imperial shell,1937832.0,grocery store,2013-08-21,41.9609132153612,-87.68881742016944,2013,Grocery Store
161976,1228280,pershing center,1493623.0,grocery store,2013-11-06,41.82351520329658,-87.63307500146024,2013,Grocery Store
161985,1319831,one stop food   liquor store,1094.0,grocery store,2013-10-17,41.816865148052045,-87.59868884416672,2013,Grocery Store
161998,1369531,jewel food store  3092,1411.0,grocery store,2013-10-08,41.722263198133774,-87.58291763461929,2013,Grocery Store
162003,1360647,la montana,1874802.0,grocery store,2013-09-03,41.7857757495591,-87.72790963857106,2013,Grocery Store
162004,1151564,m   d grocery store,1991046.0,grocery store,2013-08-22,41.83808191145939,-87.65178087872175,2013,Grocery Store
162006,1092567,afc sushi   dominick s  1695,1985453.0,grocery store,2013-08-21,41.925268275703296,-87.65348756413924,2013,Grocery Store
162011,1367263,super nick food,17763.0,grocery store,2013-09-13,41.866017148612464,-87.72831529648006,2013,Grocery Store
162035,1319805,kareem mini mart,1926766.0,grocery store,2013-10-01,41.809398169618895,-87.62275731970227,2013,Grocery Store
162040,1365298,lake shore groceries,1043583.0,grocery store,2013-10-01,41.899280990919685,-87.61889451230181,2013,Grocery Store
162055,1319711,candy city   general merchandise,2083883.0,grocery store,2013-08-19,41.80918391171004,-87.62238657246479,2013,Grocery Store
162056,1072630,moo   oink inc,11912.0,grocery store,2013-10-25,41.74494734576145,-87.65344404443873,2013,Grocery Store
162058,1367311,family dollar store  6618,1547031.0,grocery store,2013-10-03,41.88053599680486,-87.73244354885557,2013,Grocery Store
162061,1369485,tobacco city,1738153.0,grocery store,2013-10-07,41.91748640064961,-87.70899097096846,2013,Grocery Store
162070,1319695,hyde park golo,1248237.0,grocery store,2013-08-12,41.80190798861809,-87.62156099431172,2013,Grocery Store
162071,1370017,dia food   liquor,41854.0,grocery store,2013-10-28,41.68495579836147,-87.65972582896248,2013,Grocery Store
162072,1361079,7 eleven  29726j,2278525.0,grocery store,2013-09-19,41.9491572433655,-87.64852661788835,2013,Grocery Store
162080,1072555,prestige liquors,1883995.0,grocery store,2013-09-17,41.76449559670579,-87.68338426748386,2013,Grocery Store
162094,1155162,baltimore food   liquor,1446831.0,grocery store,2013-10-25,41.652964611693584,-87.547298652826,2013,Grocery Store
162111,1072514,discount meat company,13820.0,grocery store,2013-08-27,41.75068744047768,-87.63338092920426,2013,Grocery Store
162122,1369787,ciales poultry meats   fish,6876.0,grocery store,2013-10-18,41.9175641969242,-87.68171694459953,2013,Grocery Store
162123,1389232,andy s super discount,2033018.0,grocery store,2013-11-06,41.9384664764612,-87.7663567364366,2013,Grocery Store
162163,1361002,grocery basket,1677513.0,grocery store,2013-09-17,41.70719854079396,-87.61416259374056,2013,Grocery Store
162175,1106887,pj s pantry,1515326.0,grocery store,2013-09-27,41.9537740641164,-87.64806067621346,2013,Grocery Store
162180,1324703,potash bros inc,19826.0,grocery store,2013-09-30,41.89887819742381,-87.6281111483033,2013,Grocery Store
162189,1354200,walgreens  1496,18629.0,grocery store,2013-08-12,41.99592392276426,-87.78763799175523,2013,Grocery Store
162197,1361178,pulaski citgo gas  inc ,2284834.0,grocery store,2013-09-24,41.96088251367436,-87.7276792419795,2013,Grocery Store
162216,1166399,walgreens   07359,1443208.0,grocery store,2013-09-16,41.93953549426817,-87.72480654069507,2013,Grocery Store
162227,1329470,jewel food store  3224,1144401.0,grocery store,2013-08-23,41.953010233234615,-87.78770716259851,2013,Grocery Store
162253,1106840,howard groceries   plus,2021490.0,grocery store,2013-09-12,42.01948985104065,-87.67205666727395,2013,Grocery Store
162254,1345653,lifestyles tuck shop,41042.0,grocery store,2013-11-12,41.8838242127101,-87.62928951434209,2013,Grocery Store
162258,1072533,the neighborhood store,47617.0,grocery store,2013-09-06,41.74278773369506,-87.65338425075423,2013,Grocery Store
162266,1369220,jewel food store  3282,1337.0,grocery store,2013-09-23,41.96679711200058,-87.7672994806274,2013,Grocery Store
162279,1296597,grove liquors,36990.0,grocery store,2013-09-26,41.77328619005114,-87.60591910261032,2013,Grocery Store
162280,1106856,kamdar plaza inc,4429.0,grocery store,2013-09-18,41.99772190147749,-87.69664110286965,2013,Grocery Store
162285,1329607,circle g convenient store,29123.0,grocery store,2013-11-12,41.93820696511264,-87.78608407009212,2013,Grocery Store
162294,1343510,herbal life,2277462.0,grocery store,2013-10-15,41.84030863035164,-87.73310705898443,2013,Grocery Store
162295,1236053,walgreens  06727,1847450.0,grocery store,2013-10-24,41.96805304715626,-87.64947455517225,2013,Grocery Store
162306,1360284,sonia s supermarket,2279064.0,grocery store,2013-08-15,41.779124762208056,-87.68529054257588,2013,Grocery Store
162318,1370084,a   d food market inc,1144262.0,grocery store,2013-10-30,41.86084100268044,-87.7251616093027,2013,Grocery Store
162328,1151784,royal deli,2115060.0,grocery store,2013-11-05,41.85491131910428,-87.67577256587357,2013,Grocery Store
162332,1369743,isla tropical,2289586.0,grocery store,2013-10-17,41.92349095750785,-87.74613233682382,2013,Grocery Store
162346,1166452,cvs pharmacy  5795,1545021.0,grocery store,2013-10-08,41.94645156351348,-87.71316830471574,2013,Grocery Store
162365,1343542,sharps food,2293588.0,grocery store,2013-11-05,41.85882397025515,-87.73459109692567,2013,Grocery Store
162381,1166407,good morning food stop,1577654.0,grocery store,2013-09-19,41.95375061165,-87.72844043082812,2013,Grocery Store
162383,1369924,first impression beauty supplies cellular inc,2293166.0,grocery store,2013-10-24,41.87791640420123,-87.68620079998645,2013,Grocery Store
162406,1370022,farmers food basket,1942691.0,grocery store,2013-10-28,41.76582254075368,-87.61520620272347,2013,Grocery Store
162418,1345594,7 eleven 33609,1822356.0,grocery store,2013-10-22,41.91810712421967,-87.69736529538596,2013,Grocery Store
162433,1343421,los tres hermanos,33449.0,grocery store,2013-08-20,41.838813028693714,-87.72454903278836,2013,Grocery Store
162446,1360308,seven food,2099041.0,grocery store,2013-08-16,41.7511154696891,-87.60863902482612,2013,Grocery Store
162456,1369973,trader joe s east,1592120.0,grocery store,2013-10-25,41.89340802039415,-87.6264377426347,2013,Grocery Store
162461,1360548,veg head,2270882.0,grocery store,2013-08-28,41.955868080075895,-87.68012286699279,2013,Grocery Store
162490,1115075,cvs pharmacy  8910,1974178.0,grocery store,2013-10-15,41.88607017398008,-87.62053658903366,2013,Grocery Store
162494,1369734,danny s fresh market,1888080.0,grocery store,2013-10-16,41.9210962680183,-87.687671012922,2013,Grocery Store
162519,1360414,piatto pronto,1841223.0,grocery store,2013-08-21,41.98426104455851,-87.66907287679672,2013,Grocery Store
162532,1228266,express mart on michigan inc ,2064859.0,grocery store,2013-10-29,41.85969762614072,-87.62382786533588,2013,Grocery Store
162575,1360315,7    eleven   33526,1986217.0,grocery store,2013-08-16,41.94590506437645,-87.74690751577255,2013,Grocery Store
162609,1375208,loreto grocery,76774.0,grocery store,2013-11-05,41.81000147830093,-87.69318135230999,2013,Grocery Store
162628,1367349,mario s butcher shop,2109251.0,grocery store,2013-10-21,41.88004498075895,-87.77049337933958,2013,Grocery Store
162637,1361019,shop wise food,133440.0,grocery store,2013-09-18,41.70717395149417,-87.6314024214215,2013,Grocery Store
162653,1369993,baba dollar plus market,2279592.0,grocery store,2013-10-28,41.76249139991999,-87.57636751973416,2013,Grocery Store
162665,1228254,la canica,1800187.0,grocery store,2013-10-24,41.80662502809212,-87.67206027636341,2013,Grocery Store
162681,1360610,hyde park bp am pm,1767630.0,grocery store,2013-08-30,41.80145655246098,-87.58774186215581,2013,Grocery Store
162688,1345652,news stand,1681509.0,grocery store,2013-11-12,41.8838242127101,-87.62928951434209,2013,Grocery Store
162718,920360,goodies supermarket,2109145.0,grocery store,2013-08-09,41.75131060613037,-87.59240111116749,2013,Grocery Store
162742,1360508,ed s food mart  inc ,1939028.0,grocery store,2013-08-27,41.67958373431513,-87.62041276496329,2013,Grocery Store
162746,1369572,city grocery inc ,1422515.0,grocery store,2013-10-09,41.69562197236637,-87.64262661766566,2013,Grocery Store
162762,1360219,market citgo,1621713.0,grocery store,2013-08-13,41.76442386382118,-87.69336152119097,2013,Grocery Store
162774,1235962,park tower market,1121243.0,grocery store,2013-09-06,41.98057425681967,-87.65495538156401,2013,Grocery Store
162816,1360696,walla food,2278440.0,grocery store,2013-09-05,41.88396660904719,-87.75534386759125,2013,Grocery Store
162839,1099150,kedzie   wilson food  inc ,1357685.0,grocery store,2013-08-21,41.964560982284496,-87.708203531794,2013,Grocery Store
162851,1360230,cermak produce,1476654.0,grocery store,2013-08-13,41.95859672468275,-87.70830957589537,2013,Grocery Store
162863,1329573,nineveh mart   meat,2289116.0,grocery store,2013-10-24,41.99763496349434,-87.7016813774542,2013,Grocery Store
162871,920381,frances ice creame   sweet shop,2108901.0,grocery store,2013-08-28,41.76586844036779,-87.61245309551713,2013,Grocery Store
