,inspection_id,dba_name,license_,facility_type,zip,inspection_date,latitude,longitude,year,category
160857,1370015,la michoacana,0.0,restaurant,60632.0,2013-10-28,41.81416061869724,-87.69453060572629,2013,Restaurant
160946,1151592,taqueria chile bravo,0.0,restaurant,60608.0,2013-09-03,41.85133736450854,-87.6783945206964,2013,Restaurant
164866,1360997,vinces pizzeria   taqueria  inc,0.0,restaurant,60660.0,2013-09-17,41.99798866563551,-87.66883580355905,2013,Restaurant
167296,1353232,italian pizza kitchen,0.0,restaurant,60642.0,2013-06-20,41.90734970710327,-87.64926041452054,2013,Restaurant
172446,1138820,la salle power co ,0.0,restaurant,60654.0,2013-02-07,41.890841457197695,-87.63270627765388,2013,Restaurant
172614,1188496,unlicensed,0.0,restaurant,60645.0,2013-01-29,42.01941677429189,-87.68449834218502,2013,Restaurant
175600,1321538,birrieria aquascalientes,0.0,restaurant,60641.0,2013-01-24,41.93864158190054,-87.7528234779786,2013,Restaurant
178177,1227591,montoya s ice cream,0.0,restaurant,60629.0,2012-09-25,41.78624779326939,-87.69654975568328,2013,Restaurant
183117,1202458,essential healthy living inc ,0.0,restaurant,60632.0,2012-10-10,41.80772734648144,-87.72636656547475,2013,Restaurant
183789,1088210,kenny,0.0,restaurant,60617.0,2012-06-26,41.73869100380115,-87.58510330731285,2013,Restaurant
186961,1150466,the salvation army kroc center,0.0,restaurant,60643.0,2012-06-13,41.67776039309511,-87.65366213755682,2013,Restaurant
192204,1229479,alvaro jimenez,0.0,restaurant,60609.0,2012-06-07,41.81068114659683,-87.6648796277618,2013,Restaurant
193301,1214351,salvation army arc clybourn,0.0,restaurant,60614.0,2012-04-24,41.9228752360221,-87.66636681694519,2013,Restaurant
194884,670575,respect for life,0.0,restaurant,60620.0,2012-02-16,41.75055282036361,-87.64267369127873,2013,Restaurant
3962,1286054,soul gourmet,0.0,restaurant,60621.0,2012-05-04,41.7798631678725,-87.6445278756232,2013,Restaurant
3600,1138931,richard s bar,80209.0,liquor,60654.0,2013-05-07,41.891046484349566,-87.64714988556881,2013,Liquor Store
148043,1199031,irish eyes,44410.0,liquor,60614.0,2013-08-21,41.92775343910253,-87.65177531105877,2013,Liquor Store
155087,1345715,diosa on the river,1975155.0,liquor,60601.0,2013-12-04,41.88694996938017,-87.62836812398149,2013,Liquor Store
155674,1199227,binny s beverage depot,2279270.0,grocery store,60614.0,2013-12-05,41.91346823016767,-87.65503220481568,2013,Liquor Store
155913,1375723,2960 beverage corporation,30782.0,restaurant,60657.0,2013-11-29,41.93617164858792,-87.63693905225722,2013,Liquor Store
155921,1391278,mother s too,47008.0,liquor,60610.0,2013-11-22,41.904041830936535,-87.62925137553839,2013,Liquor Store
156164,1375999,wrongs,2676.0,liquor,60643.0,2013-12-12,41.7114420164893,-87.68191864161031,2013,Liquor Store
156819,1387278,belmonte liquors,7045.0,liquor,60651.0,2013-12-03,41.89507338102242,-87.75076923891397,2013,Liquor Store
156897,1174652,osco drug  2500,2293800.0,liquor,60607.0,2013-12-03,41.864521193743535,-87.63930409963562,2013,Liquor Store
157167,1383295,logan tavern group  llc,2222278.0,liquor,60647.0,2013-12-09,41.92500732368619,-87.68801953359667,2013,Liquor Store
158583,1367430,rothschild liquors,21478.0,liquor,60612.0,2013-12-02,41.88091056340495,-87.70191164071454,2013,Liquor Store
160103,1391297,galleria liqueurs,1068962.0,liquor,60610.0,2013-12-04,41.91084518940228,-87.63455411523205,2013,Liquor Store
161167,1369600,rhine hall,2232877.0,liquor,60612.0,2013-10-10,41.88687433960174,-87.67729605577165,2013,Liquor Store
161255,1305417,el palenque,1474268.0,liquor,60632.0,2013-09-16,41.80007923163306,-87.73319334955318,2013,Liquor Store
161356,1324767,the junction chicago,2245721.0,liquor,60606.0,2013-11-04,41.878531278353606,-87.63942745962717,2013,Liquor Store
161605,1361394,debonair social club,1226806.0,liquor,60622.0,2013-10-08,41.91021618406442,-87.67698445293294,2013,Liquor Store
162307,1387247,tantrik chicago,1974373.0,liquor,60642.0,2013-11-08,41.89566757449822,-87.64777938019307,2013,Liquor Store
162939,1361054,king food   liquor,40321.0,liquor,60621.0,2013-09-19,41.76892629684455,-87.64465599703081,2013,Liquor Store
163606,1343442,la roka corp ,1761.0,liquor,60623.0,2013-09-09,41.8388353981231,-87.71234420552848,2013,Liquor Store
166090,1151430,maria s packaged goods   community bar,2253083.0,liquor,60608.0,2013-07-09,41.8380910532484,-87.65111734631012,2013,Liquor Store
166140,1319705,beacon tap,1681121.0,liquor,60633.0,2013-08-16,41.6535870071101,-87.5460608117465,2013,Liquor Store
166573,1277822,mas o menos lounge,2233068.0,liquor,60622.0,2013-05-06,41.902867714807854,-87.69109787174827,2013,Liquor Store
167199,1235824,independent spirits inc ,2197111.0,liquor,60660.0,2013-06-11,41.99040310845111,-87.66013198125891,2013,Liquor Store
167369,1301087,super mas market,1997806.0,liquor,60609.0,2013-01-03,41.80876545825601,-87.66117010835542,2013,Liquor Store
167462,1072412,mitchell lounge,2184116.0,liquor,60636.0,2013-05-14,41.76832753024063,-87.67389580865591,2013,Liquor Store
167864,1228084,sixty six o one club,697.0,liquor,60636.0,2013-08-02,41.773695811390624,-87.68334439509034,2013,Liquor Store
168017,1336150,the corrib irish pub,2256664.0,liquor,60630.0,2013-06-18,41.9815375874498,-87.76221919812195,2013,Liquor Store
168199,1322542,progress bar,2240697.0,liquor,60657.0,2013-06-11,41.94357316110511,-87.64922664095873,2013,Liquor Store
168340,1285228,central  liquors,24500.0,liquor,60617.0,2012-09-13,41.72836569540381,-87.55081266375262,2013,Liquor Store
168585,1285815,el paisa lounge,9383.0,liquor,60609.0,2012-10-11,41.81148733376705,-87.66976098000471,2013,Liquor Store
168868,1335661,genie s discount liquor   grocery,2073641.0,liquor,60651.0,2013-05-21,41.894805732844496,-87.75759406086019,2013,Liquor Store
170079,1279253,tommy o,2147177.0,liquor,60608.0,2012-10-23,41.83730604737545,-87.6661330516157,2013,Liquor Store
170555,1151355,hinky dinks pub,14594.0,liquor,60655.0,2013-06-07,41.69143431638764,-87.70256424147274,2013,Liquor Store
172617,1327070,el corral,1844537.0,cat liquor,60629.0,2013-04-19,41.78638189485879,-87.70179623177904,2013,Liquor Store
172656,1326818,the wine huntress,2221605.0,liquor,60654.0,2013-04-09,41.88950020584384,-87.63416838722894,2013,Liquor Store
172873,1146339,trevino s liquors inc,9276.0,liquor,60623.0,2013-03-08,41.83673082682839,-87.72793086609656,2013,Liquor Store
172880,1326248,drop in lounge,2146798.0,liquor,60619.0,2013-03-11,41.75108300779263,-87.61047505956222,2013,Liquor Store
174189,1146376,kedzie liquor,35482.0,liquor,60632.0,2013-04-25,41.79466537919358,-87.70344423431382,2013,Liquor Store
174409,1202325,rite liquors,3283.0,liquore store bar,60622.0,2012-06-21,41.90320537596804,-87.66937146541115,2013,Liquor Store
174949,1146338,miska s,6905.0,liquor,60623.0,2013-03-08,41.844340200981776,-87.72621693173878,2013,Liquor Store
175053,1214496,zen wine   spirits,2137476.0,liquor,60622.0,2012-03-13,41.910449789252766,-87.67271845110511,2013,Liquor Store
177499,1277674,hide out inc,1474.0,liquor,60622.0,2013-01-29,41.91378440726453,-87.66244709996673,2013,Liquor Store
177944,1300921,gomez lounge inc,1922242.0,liquor,60609.0,2012-12-13,41.81575399563499,-87.66585278059576,2013,Liquor Store
178218,1300302,joe s liquor store,49426.0,liquor,60629.0,2012-11-02,41.77909268469035,-87.68778842592324,2013,Liquor Store
178274,1300997,tonic room,1274167.0,liquor,60614.0,2012-12-19,41.92675005562867,-87.64865953821696,2013,Liquor Store
178604,1300988,marty s,1717294.0,liquor,60640.0,2012-12-13,41.97972858218319,-87.66875196215193,2013,Liquor Store
178778,1300299,somewhere in time lounge,1821175.0,liquor,60617.0,2012-11-02,41.700489135362616,-87.5597142553443,2013,Liquor Store
178819,1279257,succezz,2098980.0,liquor,60612.0,2012-10-24,41.88567164152838,-87.68177223280703,2013,Liquor Store
179452,1092280,the public house theatre,2203351.0,liquor,60613.0,2013-01-17,41.9529085373318,-87.66125810838457,2013,Liquor Store
179910,1285495,vishu food   liquor,2152514.0,liquor,60647.0,2012-09-25,41.92459112698313,-87.70886434414017,2013,Liquor Store
179914,1134729,prohibit,2146303.0,tavern liquor,60654.0,2012-11-15,41.89012137600596,-87.63186016746914,2013,Liquor Store
180702,1319229,juke joynt,2134412.0,liquor,60653.0,2012-11-20,41.80932375021602,-87.61325959055534,2013,Liquor Store
181773,1300917,route 43 bar  inc ,2125824.0,liquor,60609.0,2012-12-13,41.81575399563499,-87.66585278059576,2013,Liquor Store
182887,1300928,mirnas  inc ,26177.0,liquor,60609.0,2012-12-14,41.80841570618848,-87.67277103365208,2013,Liquor Store
183125,1285501,republic,55715.0,liquor,60622.0,2012-09-25,41.90970258309405,-87.65117880416885,2013,Liquor Store
183280,1098756,the beer temple,2189283.0,liquor,60618.0,2012-12-13,41.93907999018257,-87.69765351023295,2013,Liquor Store
183656,1188303,240 cafe   lounge,1741971.0,liquor,60625.0,2012-08-01,41.968357068238525,-87.72757835154994,2013,Liquor Store
183832,1234346,beauty bar,9285.0,liquor,60622.0,2012-07-27,41.896231064727615,-87.66422034267339,2013,Liquor Store
184664,1230089,two way loune,1276355.0,liquor,60647.0,2012-07-13,41.92488366892586,-87.70104870385482,2013,Liquor Store
184722,1114396, m  bar,2157235.0,liquor,60601.0,2012-08-07,41.88454011059238,-87.62430852246028,2013,Liquor Store
185651,1285303,green dolphin inc ,2183963.0,liquor,60614.0,2012-09-18,41.92158491136849,-87.66877310760022,2013,Liquor Store
185839,1227539,prestige hoyne liquor,15947.0,liquor,60620.0,2012-08-31,41.75010107633995,-87.67488520394886,2013,Liquor Store
185852,1084372,fire fly events and catering,2162927.0,liquor,60612.0,2012-09-13,41.88743405025222,-87.68184949426895,2013,Liquor Store
186467,1202351,sun shine food   liquor inc,24512.0,liquor,60624.0,2012-07-11,41.866314688484486,-87.7227985037213,2013,Liquor Store
187256,1234526,buy low food   liquors,2162938.0,liquor,60640.0,2012-08-09,41.96897700961856,-87.67069153919947,2013,Liquor Store
187332,1234717,lincoln norabang restaurant,1769506.0,liquor,60625.0,2012-08-20,41.98194878070788,-87.69336920708024,2013,Liquor Store
187361,1229796,family lounge,2137002.0,liquor,60636.0,2012-06-25,41.767300033477646,-87.6543206847795,2013,Liquor Store
187421,1096382,square one lounge,2147307.0,liquor,60605.0,2012-07-10,41.86400154354981,-87.62422572913968,2013,Liquor Store
189309,1219209,miska liquor,46310.0,liquor,60638.0,2012-04-19,41.777778359158,-87.78178694228211,2013,Liquor Store
189348,1098328,revolution beer llc,2142584.0,liquor,60618.0,2012-05-17,41.942172620379935,-87.7078475502974,2013,Liquor Store
189367,1196308,black ensemble theater cultura,2113380.0,liquor,60640.0,2012-05-10,41.96283444151397,-87.66636330699929,2013,Liquor Store
189572,1215176,carmens place,2010.0,liquor,60623.0,2012-05-25,41.84092280954314,-87.707517430604,2013,Liquor Store
190948,1219212,miska s liquor,2138678.0,liquor,60638.0,2012-04-19,41.777778359158,-87.78178694228211,2013,Liquor Store
194281,606542,sd liquor inc ,2129461.0,liquor,60620.0,2012-01-19,41.74694756568641,-87.65378788890766,2013,Liquor Store
194395,659969,old town school of folk music,2098166.0,liquor,60625.0,2012-01-12,41.964372388216674,-87.68560704977685,2013,Liquor Store
196714,679984,osco drug  3632,2137471.0,liquor,60613.0,2012-03-06,41.948004550829744,-87.66418623070139,2013,Liquor Store
3436,1319696,citgo gas station,2036895.0,grocery store,60615.0,2013-08-12,41.80190798861809,-87.62156099431172,2013,Convenience Store/Gas Station
140248,1360877,bjc gas stations inc ,2283907.0,grocery store,60647.0,2013-09-12,41.92437866356742,-87.72645213394472,2013,Convenience Store/Gas Station
156596,1376124,montrose  gas  station,2299469.0,grocery gas station,60634.0,2013-12-18,41.96024250396864,-87.77695589620686,2013,Convenience Store/Gas Station
158238,1228348,clark gas station 1,2009255.0,gas station,60616.0,2013-12-04,41.84554517176753,-87.63841937017723,2013,Convenience Store/Gas Station
162064,1192211,mobile gas station,1649830.0,grocery store,60630.0,2013-09-13,41.97293449423836,-87.77778665200465,2013,Convenience Store/Gas Station
164537,1360711,fullerton pulaski incorporated,2119838.0,grocery service gas station,60647.0,2013-09-05,41.92437866356742,-87.72645213394472,2013,Convenience Store/Gas Station
166778,1146443,55th gas station,2104499.0,grocery store,60632.0,2013-06-25,41.79300647783262,-87.73302576421982,2013,Convenience Store/Gas Station
175696,1072380,marathon gas,2252432.0,grocery store gas station,60620.0,2013-04-25,41.74662206284314,-87.66348933329323,2013,Convenience Store/Gas Station
178325,1321341,mobil gas station,1980885.0,grocery store,60621.0,2013-01-15,41.779849170802734,-87.63213748767913,2013,Convenience Store/Gas Station
183441,1321241,snappy convenience center  4,43704.0,grocery service gas station,60647.0,2013-01-09,41.91360573157923,-87.68745419657513,2013,Convenience Store/Gas Station
185018,1229587,norma s mini store,0.0,grocery store,60608.0,2012-06-13,41.85386830200632,-87.67821915483191,2013,Grocery Store
3247,1228358,rubi grocery,2054919.0,grocery store,60609.0,2013-12-09,41.80123959131233,-87.66240487723034,2013,Grocery Store
3251,1375876,morrocco s,1884903.0,grocery store,60619.0,2013-12-05,41.73141065034323,-87.60484189391822,2013,Grocery Store
3252,1391301,munchies,1120952.0,grocery store,60610.0,2013-12-05,41.90046290693005,-87.63746817234774,2013,Grocery Store
3261,1319936,saja foods,2293220.0,grocery store,60637.0,2013-11-29,41.78917398251256,-87.61989129248225,2013,Grocery Store
3266,1072669,pete s produce,1448266.0,grocery store,60620.0,2013-11-21,41.73574485136591,-87.65871770565929,2013,Grocery Store
3268,1389256,daveed liquor   food,35421.0,grocery store,60618.0,2013-11-21,41.96129692086515,-87.70818823321862,2013,Grocery Store
3269,920430,79th st mini mart,2109973.0,grocery store,60619.0,2013-11-21,41.75107097352686,-87.61122848785296,2013,Grocery Store
3287,1375225,zee dollar and food,2014197.0,grocery store,60619.0,2013-11-06,41.75829331503205,-87.61535410873262,2013,Grocery Store
3331,1329560,7 eleven  27421j,2278540.0,grocery store,60634.0,2013-10-10,41.953292847298,-87.76706570775266,2013,Grocery Store
3344,1115051,the chase shop,1622073.0,grocery store,60603.0,2013-10-01,41.88143431313232,-87.63072037749313,2013,Grocery Store
3348,1369370,hudson,2289495.0,grocery store,60666.0,2013-10-01,42.008536400868735,-87.91442843927047,2013,Grocery Store
3350,1343488,the roseland market,1382093.0,grocery store,60624.0,2013-10-01,41.8808046152,-87.71137549591673,2013,Grocery Store
3352,1296609,brandon s food mart,1981133.0,grocery store,60617.0,2013-09-27,41.74481111111927,-87.54654088109194,2013,Grocery Store
3356,1343477,rio grande fruit market  inc ,1042285.0,grocery store,60647.0,2013-09-27,41.909910705082176,-87.71438551021203,2013,Grocery Store
3361,1343475,walla food,2278440.0,grocery store,60644.0,2013-09-24,41.88396660904719,-87.75534386759125,2013,Grocery Store
3362,1072572,western convenience store,2284766.0,grocery store,60636.0,2013-09-24,41.78044753775588,-87.68381968063304,2013,Grocery Store
3363,1343472,bethlehem food mart inc ,2120211.0,grocery store,60623.0,2013-09-24,41.85172137506997,-87.70078598465724,2013,Grocery Store
3370,1360991,west loop mart,2284138.0,grocery store,60607.0,2013-09-17,41.88568794689097,-87.65246444630944,2013,Grocery Store
3372,1072555,prestige liquors,1883995.0,grocery store,60636.0,2013-09-17,41.76449559670579,-87.68338426748386,2013,Grocery Store
3390,1235965,diala grocery,44357.0,grocery store,60640.0,2013-09-06,41.9759453108431,-87.6778086487862,2013,Grocery Store
3395,1319738,garfield super saver,2278634.0,grocery store,60615.0,2013-09-05,41.794777232849405,-87.62391935385449,2013,Grocery Store
3403,1324647,7 eleven,2232736.0,grocery store,60606.0,2013-09-03,41.88525719405359,-87.63376979601067,2013,Grocery Store
3413,1360470,walmart  5645,2153545.0,grocery store,60657.0,2013-08-23,41.93403616510409,-87.64455372891567,2013,Grocery Store
3421,1360366,g   f produce,1301839.0,grocery store,60619.0,2013-08-19,41.76426517759021,-87.62473433928172,2013,Grocery Store
3426,1319700,michaels fresh market,2043177.0,grocery store,60653.0,2013-08-15,41.80977272660802,-87.59496089093687,2013,Grocery Store
3427,1360295,stop and shop for u,2270095.0,grocery store,60610.0,2013-08-15,41.91101314874418,-87.63801771166592,2013,Grocery Store
3439,1354155,hashim corporation,27682.0,grocery store,60628.0,2013-08-08,41.71411886808991,-87.64314540818165,2013,Grocery Store
3446,1358211,cent   div petroleum  inc ,2270979.0,grocery store,60651.0,2013-08-05,41.9021910503325,-87.76550765713982,2013,Grocery Store
3455,1354006,amp food mart,2036784.0,grocery store,60612.0,2013-08-01,41.86660247749348,-87.69737609001699,2013,Grocery Store
3461,1353912,afc sushi   jewel osco  3501,2103820.0,grocery store,60618.0,2013-07-29,41.943187373182425,-87.68830202070191,2013,Grocery Store
3467,1353895,supermercado cardenas,1596877.0,grocery store,60618.0,2013-07-29,41.96121761602189,-87.71482086236585,2013,Grocery Store
3487,1353679,hollywood pantry,2240471.0,grocery store,60660.0,2013-07-16,41.98543645180304,-87.66321121187575,2013,Grocery Store
3499,1353506,petra mini mart  inc ,2042176.0,grocery store,60649.0,2013-07-08,41.751720377952616,-87.55893129286477,2013,Grocery Store
3501,1353583,adams food mart,1817376.0,grocery store,60644.0,2013-07-03,41.891033547074734,-87.75530964570335,2013,Grocery Store
3516,1146445,dollar   up group inc ,2054850.0,grocery store,60632.0,2013-06-25,41.79361538661615,-87.70370439210384,2013,Grocery Store
3520,1202820,rite price food,1198136.0,grocery store,60651.0,2013-06-24,41.90225068969279,-87.76595092376172,2013,Grocery Store
3531,1336095,chicago ave quick mart,2129746.0,grocery store,60651.0,2013-06-13,41.89495931732741,-87.76563183906008,2013,Grocery Store
3533,1336089,convenient food mart,1167373.0,grocery store,60630.0,2013-06-13,41.98228977576567,-87.77396048836235,2013,Grocery Store
3538,1335991,71st meat market,1381216.0,grocery store,60619.0,2013-06-10,41.7656797434309,-87.61178040866801,2013,Grocery Store
3539,1324505,walmart market  5647,2104003.0,grocery store,60661.0,2013-06-07,41.88065823696528,-87.64254672480664,2013,Grocery Store
3564,1335742,midtown market,2229406.0,grocery store,60651.0,2013-05-24,41.90258387387031,-87.72361924848285,2013,Grocery Store
3566,1072433,marathon gas   food,1893045.0,grocery store,60636.0,2013-05-23,41.786978677373725,-87.6558418005699,2013,Grocery Store
3569,1151314,la vencedora,2050068.0,grocery store,60629.0,2013-05-22,41.7787266404954,-87.72618188418672,2013,Grocery Store
3572,1335662,pete s food and liquor,2245242.0,grocery store,60651.0,2013-05-21,41.894805732844496,-87.75759406086019,2013,Grocery Store
3577,1335595,chicago o hare marriott hotel,1970455.0,grocery store,60631.0,2013-05-16,41.9867885856625,-87.84012417346162,2013,Grocery Store
3582,1327017,north ave discount store,1959898.0,grocery store,60639.0,2013-04-17,41.90949904495798,-87.76471097912471,2013,Grocery Store
3613,1296342,k   g food mart inc,2202445.0,grocery store,60649.0,2013-05-02,41.76592822544687,-87.56729718983736,2013,Grocery Store
3614,1072395,jay food,2078776.0,grocery store,60620.0,2013-05-02,41.75026194676381,-87.66225587318787,2013,Grocery Store
3619,1296334,pm wine   spirits inc,2246309.0,grocery store,60617.0,2013-04-29,41.72255919671874,-87.57692645087114,2013,Grocery Store
3631,1324420,super nut   candy,2114624.0,grocery store,60661.0,2013-04-23,41.884187507127805,-87.64111966683218,2013,Grocery Store
3634,1327125,las americas,2232386.0,grocery store,60651.0,2013-04-23,41.90246838200645,-87.7264432559915,2013,Grocery Store
3641,1343226,la trinidad,2247101.0,grocery store,60623.0,2013-04-19,41.85049016185051,-87.70536206979284,2013,Grocery Store
3649,1072363,monterrey food mart,2247209.0,grocery store,60620.0,2013-04-17,41.75026194676381,-87.66225587318787,2013,Grocery Store
3653,1296312,one stop shop,2069081.0,grocery store,60649.0,2013-04-16,41.76637214916412,-87.57399822500324,2013,Grocery Store
3659,1326952,mobil car wash,2004106.0,grocery store,60628.0,2013-04-15,41.685029586669295,-87.64200453218888,2013,Grocery Store
3667,1106485,city fresh market,1479959.0,grocery store,60659.0,2013-04-09,41.9972784744174,-87.70940735717784,2013,Grocery Store
3671,1227858,key food market,2240288.0,grocery store,60653.0,2013-04-08,41.81531320103716,-87.60653019507049,2013,Grocery Store
3685,1326582,speedy convenient,2245482.0,grocery store,60629.0,2013-03-27,41.77900504590168,-87.69345011858015,2013,Grocery Store
3689,1322425,mini mart,1991846.0,grocery store,60613.0,2013-03-25,41.96166713685557,-87.64976056950601,2013,Grocery Store
3711,1166227,dollar price plus,1868586.0,grocery store,60641.0,2013-03-05,41.93663593117463,-87.72696891450994,2013,Grocery Store
3728,1227761,z   s food   liquor,7382.0,grocery store,60620.0,2013-02-21,41.73575697719737,-87.65782823473583,2013,Grocery Store
3749,1321828,la tuya grocery,1596840.0,grocery store,60623.0,2013-02-13,41.83702156107857,-87.73028552616124,2013,Grocery Store
3754,1321792,austin mart,1992553.0,grocery store,60651.0,2013-02-07,41.89476941876594,-87.76197389292327,2013,Grocery Store
3766,1319365,edy s,2219994.0,grocery store,60637.0,2013-01-31,41.77776928832673,-87.615417280148,2013,Grocery Store
3771,1114649,jimmy foods,1975067.0,grocery store,60616.0,2013-01-29,41.83118112741629,-87.6204126940239,2013,Grocery Store
3778,1321579,dominick s  1703,1574461.0,grocery store,60611.0,2013-01-28,41.891689839806666,-87.62044413482636,2013,Grocery Store
3790,1279367,qorner foods,2013363.0,grocery store,60644.0,2013-01-22,41.87294753276929,-87.76377219082919,2013,Grocery Store
3802,1235607,carniceria la azteca,1354069.0,grocery store,60626.0,2013-01-15,42.01096295270289,-87.67421465771075,2013,Grocery Store
3813,1277610,alkalili enterprises inc,82305.0,grocery restaurant,60639.0,2012-12-27,41.92214330584142,-87.75962876544102,2013,Grocery Store
3849,1277595,sam s mart,2203026.0,grocery store,60624.0,2012-12-21,41.87869416787812,-87.72545342777866,2013,Grocery Store
3857,1151037,target store  t 2344,1915681.0,grocery store,60643.0,2012-12-19,41.67812041266304,-87.66263902716186,2013,Grocery Store
3864,1271482,j s vitamins   more,1869245.0,grocery store,60630.0,2012-12-14,41.97693688769671,-87.76907431197014,2013,Grocery Store
3878,1300801,el milagro,43513.0,grocery store,60623.0,2012-12-06,41.84468732736255,-87.70210293602436,2013,Grocery Store
3884,1098738,cermak produce,1476654.0,grocery store,60618.0,2012-12-05,41.95859672468275,-87.70830957589537,2013,Grocery Store
3885,1324206,silver state city food company,1423780.0,grocery store,60616.0,2012-12-05,41.84847671017228,-87.63204932781976,2013,Grocery Store
3900,1277535,green food mart,1974452.0,grocery store,60639.0,2012-11-29,41.92437241557,-87.72689204211684,2013,Grocery Store
3901,1324224,big daddy,1676296.0,grocery store,60616.0,2012-11-29,41.84808574918593,-87.62681447569304,2013,Grocery Store
3905,1300633,wally s market inc,72825.0,grocery store,60634.0,2012-11-27,41.95272165794881,-87.79136221262823,2013,Grocery Store
3907,1300625,el jaral supermarket  inc ,2189328.0,grocery store,60617.0,2012-11-27,41.71720197060627,-87.55390573725607,2013,Grocery Store
3928,1174350,homan 24 food inc ,2114282.0,grocery store,60623.0,2012-08-27,41.84798346521781,-87.71016371882997,2013,Grocery Store
3932,1234578,sam s food i  llc,2179556.0,grocery store,60623.0,2012-08-13,41.84072734145408,-87.70844206468855,2013,Grocery Store
3933,1234568,7 eleven  33809j,2094351.0,grocery store,60626.0,2012-08-13,42.00561787658474,-87.66078593720823,2013,Grocery Store
3943,1230132,walgreens  11492,2163707.0,grocery store,60638.0,2012-07-16,41.798703799237,-87.74335393697139,2013,Grocery Store
3944,1230098,el rancho,2162558.0,grocery store,60617.0,2012-07-13,41.70447282489701,-87.53543100590585,2013,Grocery Store
3963,1214627,el mexicano,2152689.0,grocery store,60632.0,2012-05-04,41.82175590300105,-87.69447892751417,2013,Grocery Store
3964,1118280,walgreens   13106,2146769.0,drug store grocery,60617.0,2012-04-26,41.68085613627734,-87.53995659734622,2013,Grocery Store
3977,1227285,63rd food mart,2142306.0,grocery store,60629.0,2012-03-15,41.77892076250485,-87.69914649328393,2013,Grocery Store
3985,670873,gee jays,2124848.0,grocery store,60652.0,2012-02-24,41.73696532128921,-87.72165211814503,2013,Grocery Store
3989,577807,richmond food mart,2108848.0,grocery store,60629.0,2012-02-07,41.77897388313836,-87.69689725315772,2013,Grocery Store
3998,659970,fares corporation,2134225.0,grocery store,60647.0,2012-01-12,41.91080584441617,-87.6971595317246,2013,Grocery Store
134302,1360568,carniceria y fruteria,1802424.0,grocery store,60632.0,2013-08-29,41.8207715298359,-87.6994068536533,2013,Grocery Store
138793,1236120,music box theatre,2288930.0,grocery store,60613.0,2013-11-26,41.9498572587634,-87.66394689129923,2013,Grocery Store
139534,1370187,la canasta snack,2152319.0,grocery store,60623.0,2013-11-05,41.851745859411054,-87.698743248205,2013,Grocery Store
141740,1387302,lock wood food mart,1646100.0,grocery store,60651.0,2013-12-20,41.90233017044402,-87.75831293619554,2013,Grocery Store
142015,1375666,seamos felices,2179770.0,grocery store,60625.0,2013-11-19,41.968439078876,-87.72008800315973,2013,Grocery Store
143245,1151690,e z food mart,2230594.0,grocery store,60620.0,2013-10-07,41.75019778268168,-87.66721977086333,2013,Grocery Store
145020,1092553,7 eleven  33508c,2064170.0,grocery store,60614.0,2013-08-16,41.9211783836129,-87.66357938528952,2013,Grocery Store
145048,1370070,supermercado el primo,2002523.0,grocery restaurant,60639.0,2013-10-30,41.92214330584142,-87.75962876544102,2013,Grocery Store
148008,1360821,family dollar  10596,2233212.0,grocery store,60641.0,2013-09-10,41.942383513445016,-87.7290108595133,2013,Grocery Store
148261,1305470,relay  4172,1403723.0,grocery store,60638.0,2013-12-13,41.78783563115532,-87.74127655955658,2013,Grocery Store
148518,1235996,montrose chicago cvs  l l c   6785,2279177.0,grocery store,60618.0,2013-09-24,41.96102652561947,-87.7124414111819,2013,Grocery Store
149985,1345672,chicago downtown framstand,1932009.0,grocery store,60601.0,2013-11-18,41.884608470929656,-87.62547447957526,2013,Grocery Store
151076,1319953,a   k b p,1741974.0,grocery store,60637.0,2013-12-06,41.7751408577419,-87.58644197169433,2013,Grocery Store
152632,1072523,food 4 less midwest  552,1596210.0,grocery store,60636.0,2013-09-03,41.76579077043187,-87.66396688645497,2013,Grocery Store
153503,1375878,one stop shop grocery  inc ,2284817.0,grocery store,60643.0,2013-12-05,41.706991857937496,-87.64662641289908,2013,Grocery Store
153570,1376066,olivia s market,1443829.0,grocery store,60647.0,2013-12-16,41.91240363849448,-87.67816498544441,2013,Grocery Store
154396,1115150,trader joe s  701,2060013.0,grocery store,60605.0,2013-11-25,41.867867090171096,-87.62568684119313,2013,Grocery Store
154683,1319986,chatham meat market,2065139.0,grocery store,60619.0,2013-12-20,41.74307143762398,-87.60486143722804,2013,Grocery Store
154693,1375599,del rancho market,2253109.0,grocery store,60707.0,2013-11-22,41.923703157364855,-87.79585329820894,2013,Grocery Store
154698,1319926,medo foods,2298446.0,grocery store,60637.0,2013-11-22,41.78917398251256,-87.61989129248225,2013,Grocery Store
154707,1319940,bp,1998277.0,grocery store,60615.0,2013-11-29,41.80283112007079,-87.58659252529138,2013,Grocery Store
154726,1228390,wing lee co,1739798.0,grocery store,60616.0,2013-12-18,41.85154392394672,-87.63212972989326,2013,Grocery Store
154751,1372325,whole foods market,76395.0,grocery store,60654.0,2013-12-19,41.89496867324732,-87.62939917872843,2013,Grocery Store
154767,1375660,aden sea food   meat market,2137390.0,grocery store,60625.0,2013-11-25,41.96843058653144,-87.69759092752909,2013,Grocery Store
154772,1376193,jola   hetman deli  ltd ,1620210.0,grocery store,60641.0,2013-12-27,41.93848955137405,-87.76457722521602,2013,Grocery Store
154798,1072703,k   b fuel,2163778.0,grocery store,60636.0,2013-12-18,41.77209823278005,-87.66416461759566,2013,Grocery Store
154815,1387284,7  eleven,1337708.0,grocery store,60647.0,2013-12-06,41.91810534240852,-87.67778053878558,2013,Grocery Store
154822,1375756,the pita house bakery,1986258.0,grocery store,60625.0,2013-12-02,41.96827375769163,-87.7150390070548,2013,Grocery Store
154824,1151841,genie s discount food and liquor,2270805.0,grocery store,60608.0,2013-12-02,41.85180872766685,-87.69406895512294,2013,Grocery Store
154833,1375768,big sams food   cellular,2069454.0,grocery store,60628.0,2013-12-02,41.67782162100153,-87.63112680451549,2013,Grocery Store
154845,1389285,the super discount,2109231.0,grocery store,60641.0,2013-12-16,41.9384664764612,-87.7663567364366,2013,Grocery Store
154850,1367461,west side corner store  inc,2183610.0,grocery store,60624.0,2013-12-30,41.87301726926058,-87.72555236706093,2013,Grocery Store
154856,1199220,jewel food store  2502,2293797.0,grocery store,60614.0,2013-12-03,41.92787172311833,-87.67325881463049,2013,Grocery Store
154889,1329657,7 eleven   30099m,2293324.0,grocery store,60634.0,2013-12-12,41.93836238150734,-87.79000628815903,2013,Grocery Store
154893,1376087,roosevelt food   dollar,1355985.0,grocery store,60624.0,2013-12-17,41.866313672773465,-87.72287642386448,2013,Grocery Store
154959,1228339,dominick s   1100,41629.0,grocery store,60608.0,2013-11-26,41.836468347729024,-87.66556690213167,2013,Grocery Store
154969,1391304,circle k  6736,2013754.0,grocery store,60654.0,2013-12-05,41.89665537108304,-87.63750750143288,2013,Grocery Store
154978,1389252,liluva salud y vida,2129382.0,grocery store,60641.0,2013-11-19,41.96103088961655,-87.73013984532146,2013,Grocery Store
155009,1367418,edgar s place,2115126.0,grocery store,60651.0,2013-11-22,41.895292084430416,-87.72234938942286,2013,Grocery Store
155010,1375613,lindo michoacan,42744.0,grocery store,60625.0,2013-11-22,41.96857277212391,-87.70778770127195,2013,Grocery Store
155034,1391269,cvs pharmacy  2981,1473390.0,grocery store,60610.0,2013-11-21,41.90398663767977,-87.62853057119635,2013,Grocery Store
155049,1391309,the spice house,85491.0,grocery store,60610.0,2013-12-06,41.90958317993464,-87.63480757563748,2013,Grocery Store
155065,1228329,tuxedo junction  2,8974.0,grocery store,60609.0,2013-11-20,41.81618610986143,-87.64345182349379,2013,Grocery Store
155068,1375923,park foods of 71st street inc ,1677517.0,grocery store,60629.0,2013-12-09,41.764717138882325,-87.68875098149924,2013,Grocery Store
155081,1376078,7 eleven inc ,2289021.0,grocery store,60657.0,2013-12-17,41.93767057742731,-87.64417359247956,2013,Grocery Store
155092,1375642,supermercado el guero  10 inc,39978.0,grocery store,60632.0,2013-11-25,41.82058304065872,-87.69342616596236,2013,Grocery Store
155101,1151818,la potosina grocery,2026819.0,grocery store,60608.0,2013-11-19,41.85035962181883,-87.68326750980562,2013,Grocery Store
155114,1345692,7 eleven  33582b,2055575.0,grocery store,60601.0,2013-11-25,41.88583768769826,-87.62591897202392,2013,Grocery Store
155118,1391288,copperfields market,1884701.0,grocery store,60654.0,2013-11-27,41.89494810890984,-87.63086594706665,2013,Grocery Store
155139,1389268,madni mart u s a  inc ,1301419.0,grocery store,60659.0,2013-11-26,41.99781439642854,-87.69150610963688,2013,Grocery Store
155144,1375532,63rd foods mart  2  inc ,2294463.0,grocery store,60629.0,2013-11-19,41.778896937925,-87.70075757526037,2013,Grocery Store
155150,1367457,kostner food basket,2202172.0,grocery store,60624.0,2013-12-26,41.87983508374255,-87.7355964756099,2013,Grocery Store
155213,1383319,windy city  mini markeet ,1927713.0,grocery store,60622.0,2013-12-18,41.89610573069837,-87.67194771359618,2013,Grocery Store
155223,1072691,a   n food mart  inc ,2133936.0,grocery store,60620.0,2013-12-10,41.75616269963919,-87.6528196032268,2013,Grocery Store
155231,1383317,target store t2781,2189184.0,grocery store,60607.0,2013-12-17,41.877720207180666,-87.6546900011066,2013,Grocery Store
155246,1375909,terry food  2,1246874.0,grocery store,60636.0,2013-12-06,41.77410105679016,-87.6642196704863,2013,Grocery Store
155264,1375743,save a lot  885,2079375.0,grocery store,60621.0,2013-12-02,41.76881945592184,-87.65193404080411,2013,Grocery Store
155267,1319946,fair food mart,2125851.0,grocery store,60637.0,2013-12-03,41.76913494092064,-87.62037053802513,2013,Grocery Store
155273,1228336,speedy convienient,2079011.0,grocery store,60609.0,2013-11-25,41.80304683982212,-87.66496864366974,2013,Grocery Store
155275,1376142,fresh casita,2298193.0,grocery store,60640.0,2013-12-19,41.96896366035677,-87.67168512030054,2013,Grocery Store
155287,1151862,halsted bp,1943373.0,grocery store,60608.0,2013-12-09,41.83847683503394,-87.64614167073715,2013,Grocery Store
155297,1228384,halsted food   fresh meat,2102425.0,grocery store,60609.0,2013-12-16,41.80162841617951,-87.645492014632,2013,Grocery Store
155302,1106983,roberts fish market,1142960.0,grocery store,60659.0,2013-11-18,41.997614065860645,-87.70281474950835,2013,Grocery Store
155309,1174651,dominick s  147 1147,41674.0,grocery store,60607.0,2013-12-03,41.864521193743535,-87.63930409963562,2013,Grocery Store
155311,1375969,kikka halsted,1898499.0,grocery store,60613.0,2013-12-10,41.9485198030326,-87.64967012486451,2013,Grocery Store
155328,1393231,lucky mini mart,2293790.0,grocery store,60618.0,2013-11-22,41.95611710415539,-87.67996561643453,2013,Grocery Store
155330,1106995,mexico u s a  inc ,2157121.0,grocery store,60659.0,2013-11-21,41.9831266531049,-87.71289895452085,2013,Grocery Store
155339,1375905,rigo s grocery,1144306.0,grocery store,60623.0,2013-12-06,41.83893674525578,-87.71723055457336,2013,Grocery Store
155373,1393239,adrian s foods market  2 inc ,2184373.0,grocery store,60618.0,2013-12-04,41.9612695269616,-87.71063122896197,2013,Grocery Store
155431,1395209,corliss shell   dunkin donut mr sub,46068.0,grocery store,60628.0,2013-12-30,41.69286047718907,-87.60074187522434,2013,Grocery Store
155440,1155176,sam food mart inc,1904672.0,grocery store,60643.0,2013-12-05,41.70685453314811,-87.65880171647811,2013,Grocery Store
155457,1391287,superior liquor   wine,12835.0,grocery store,60610.0,2013-11-27,41.89639085079796,-87.63138841604902,2013,Grocery Store
155484,1375924,7 eleven   33727a,2043013.0,grocery store,60607.0,2013-12-09,41.87901072333905,-87.65720059199599,2013,Grocery Store
155502,1391273,seattle sutton s healthy eating,1273573.0,grocery store,60610.0,2013-11-21,41.90565114341531,-87.63018375722896,2013,Grocery Store
155523,1376156,darth vapor inc,2299454.0,grocery store,60641.0,2013-12-20,41.93882779458902,-87.75535516733873,2013,Grocery Store
155533,1296697,jewel food store  3030,1000572.0,grocery store,60649.0,2013-11-20,41.75780565854321,-87.58626825801873,2013,Grocery Store
155556,1072700,sharif s food   liquors inc ,13502.0,grocery store,60636.0,2013-12-16,41.78520789016766,-87.65479262521927,2013,Grocery Store
155565,1369711,la flor grocery  2,1987106.0,grocery store,60617.0,2013-10-16,41.709849227540026,-87.55216756556668,2013,Grocery Store
155568,1106988,moshe  s new york kosher sausag,20891.0,grocery store,60659.0,2013-11-19,41.99762587271851,-87.70214009720418,2013,Grocery Store
155589,1319970,family dollar,1801556.0,grocery store,60637.0,2013-12-12,41.77896886166688,-87.60575207723603,2013,Grocery Store
155610,1376179,aleen food mart inc,2068732.0,grocery store,60628.0,2013-12-26,41.6853450490904,-87.62994825488515,2013,Grocery Store
155615,1151890,lagos fruit market,2027104.0,grocery store,60608.0,2013-12-16,41.85761819384384,-87.67092700126422,2013,Grocery Store
155625,1389300,montrose deli   fruit market,20886.0,grocery store,60641.0,2013-12-27,41.96042826406876,-87.7626656720388,2013,Grocery Store
155652,1375581,carniceria jimenez inc,1693.0,grocery store,60639.0,2013-11-21,41.909925247057885,-87.73155721632436,2013,Grocery Store
155658,1391292,walgreens   07630,1514574.0,grocery store,60610.0,2013-12-02,41.9000378802844,-87.62814584666361,2013,Grocery Store
155660,1383323,7 eleven  33734h,2289063.0,grocery store,60622.0,2013-12-20,41.90854443090839,-87.67755694145295,2013,Grocery Store
155667,1367431,three brothers food mart  2,2196078.0,grocery store,60624.0,2013-12-03,41.8852926316512,-87.7112859071666,2013,Grocery Store
155670,1376108,brisa foods inc ,1477966.0,grocery store,60647.0,2013-12-18,41.92089527941537,-87.71213410245794,2013,Grocery Store
155677,1375495,walgreens   02340,1493574.0,grocery store,60611.0,2013-11-18,41.89114732575639,-87.61839727431598,2013,Grocery Store
155683,1174645,olympic_meat packers inc,19345.0,grocery store,60607.0,2013-11-18,41.88450900503379,-87.64793566139686,2013,Grocery Store
155692,1375771,ameera food,2262476.0,grocery store,60645.0,2013-12-02,41.99821714564664,-87.68975169767252,2013,Grocery Store
155695,1329627,super save grocery,28571.0,grocery store,60634.0,2013-11-25,41.93824594902652,-87.78338149816744,2013,Grocery Store
155724,1367435,super low meat market  inc ,2120607.0,grocery store,60651.0,2013-12-03,41.89501920235607,-87.75811787579656,2013,Grocery Store
155757,1387282,pepe s   2 food   liquor,46863.0,grocery store,60647.0,2013-12-05,41.92430014039961,-87.68747716216569,2013,Grocery Store
155761,1236117,ishtar market,2294174.0,grocery store,60659.0,2013-11-25,41.99761554442444,-87.70273035752693,2013,Grocery Store
155785,1092724,7 eleven  33875h,2289157.0,grocery store,60614.0,2013-11-19,41.92512074163125,-87.66247715259199,2013,Grocery Store
155793,1296738,prime time food   liquors 79th,2240086.0,grocery store,60649.0,2013-12-17,41.75161868179661,-87.58372509914342,2013,Grocery Store
155838,1367451,sanford food inc,18936.0,grocery store,60644.0,2013-12-20,41.88934524773281,-87.75524955619295,2013,Grocery Store
155840,1389286,buenos aires liquor   deli,38274.0,grocery store,60641.0,2013-12-16,41.93704484795919,-87.74696412539859,2013,Grocery Store
155852,1375930,walgreens  15281,2183592.0,grocery store,60657.0,2013-12-09,41.93332233478219,-87.645134355901,2013,Grocery Store
155860,1072677,five star certified inc,7168.0,grocery store,60620.0,2013-12-02,41.73590840570721,-87.64742288026997,2013,Grocery Store
155886,1372278,300 convenience,2120131.0,grocery store,60654.0,2013-11-18,41.887528639656935,-87.63264683652446,2013,Grocery Store
155889,1305471,relay store   4182,1489266.0,grocery store,60638.0,2013-12-13,41.78783563115532,-87.74127655955658,2013,Grocery Store
155894,1072680,mario grocery   fast food  inc ,2278479.0,grocery store,60636.0,2013-12-03,41.77410105679016,-87.6642196704863,2013,Grocery Store
155895,1367449,jimmy s food,2108596.0,grocery store,60624.0,2013-12-17,41.8854288305924,-87.72565727080126,2013,Grocery Store
155904,1072673,clara s convenience store  inc,2293681.0,grocery store,60636.0,2013-11-26,41.79213790709884,-87.67682939942361,2013,Grocery Store
155919,1367458,convenience for you,2130381.0,grocery store,60644.0,2013-12-27,41.88021179645035,-87.75905986096278,2013,Grocery Store
155940,1319966,citgo gas,1357919.0,grocery store,60637.0,2013-12-12,41.77313937105805,-87.6249913991379,2013,Grocery Store
155960,1199221,osco drug  2502,2293796.0,grocery store,60614.0,2013-12-03,41.92787172311833,-87.67325881463049,2013,Grocery Store
156000,1343569,jasmin food,2294410.0,grocery store,60624.0,2013-11-19,41.87876156735198,-87.72545565871442,2013,Grocery Store
156009,1383305,dollar station,2278147.0,grocery store,60639.0,2013-12-11,41.90975214545993,-87.72810094712428,2013,Grocery Store
156023,1367415,duwell fish inc   2,1914029.0,grocery store,60624.0,2013-11-21,41.872973377321415,-87.72525817066807,2013,Grocery Store
156076,1329646,walgreens  5121,18759.0,grocery store,60634.0,2013-12-09,41.94567362501872,-87.77547129108139,2013,Grocery Store
156080,1367416,ben salem food market,2037207.0,grocery store,60651.0,2013-11-22,41.89559643977156,-87.71353997898876,2013,Grocery Store
156082,1343576,springfield food mart,2102742.0,grocery store,60623.0,2013-12-02,41.84621314869149,-87.72231059162951,2013,Grocery Store
156092,1305473,relay store   4162,1403725.0,grocery store,60638.0,2013-12-13,41.78783563115532,-87.74127655955658,2013,Grocery Store
156140,1367424,laramie mini mart 1,2152950.0,grocery store,60644.0,2013-11-26,41.87556917371918,-87.75503258715625,2013,Grocery Store
156143,1329631,citgo food mart,2220561.0,grocery store,60630.0,2013-12-02,41.96079002270176,-87.74768935876764,2013,Grocery Store
156189,1376015,dice food mart,2093638.0,grocery store,60624.0,2013-12-12,41.89194263700593,-87.71248780539938,2013,Grocery Store
156196,1329620,miska liquors,1193801.0,grocery store,60634.0,2013-11-20,41.95202371515413,-87.83295904792494,2013,Grocery Store
156248,1391341,j   r liquor   food,1738916.0,grocery store,60614.0,2013-12-20,41.92519975246885,-87.6680005030265,2013,Grocery Store
156250,1367404,heaven s foods,2059598.0,grocery store,60624.0,2013-11-19,41.88051171710117,-87.73451467580853,2013,Grocery Store
156258,1376123,frank food  4,1767467.0,grocery store,60623.0,2013-12-18,41.85714095488576,-87.70526116851221,2013,Grocery Store
156287,920431,79th   rhodes produce inc ,2083645.0,grocery store,60619.0,2013-11-21,41.75107097352686,-87.61122848785296,2013,Grocery Store
156320,1319968,jardan food   liquor,11226.0,grocery store,60637.0,2013-12-12,41.7943249341336,-87.61852060527603,2013,Grocery Store
156325,1389289,cicero deli inc ,20884.0,grocery store,60641.0,2013-12-18,41.93904667004596,-87.74702196554512,2013,Grocery Store
156338,1375587,4343 petes fresh market,2270051.0,grocery store,60632.0,2013-11-21,41.81391431134689,-87.7236649419466,2013,Grocery Store
156385,1228388,al king market  inc,2299524.0,grocery store,60609.0,2013-12-17,41.79845485182581,-87.67457880520111,2013,Grocery Store
156405,1329660,menard food market  inc,2059764.0,grocery store,60634.0,2013-12-12,41.93862238762064,-87.7712206922148,2013,Grocery Store
156412,1393229,s s deli,2021011.0,grocery store,60618.0,2013-11-22,41.941157263597,-87.70110537875657,2013,Grocery Store
156421,1376120,plaza food   liquor,8776.0,grocery store,60623.0,2013-12-18,41.85526590922669,-87.71240156240032,2013,Grocery Store
156436,1383329,what s your budget,2299141.0,grocery store,60639.0,2013-12-20,41.90975214545993,-87.72810094712428,2013,Grocery Store
156461,1072668,morgan bp,2293969.0,grocery store,60620.0,2013-11-21,41.73654360033834,-87.6486434256891,2013,Grocery Store
156486,1391300,munchies convenience,2102590.0,grocery store,60610.0,2013-12-05,41.90046290693005,-87.63746817234774,2013,Grocery Store
156487,1343574,joy mini mart,2137329.0,grocery store,60624.0,2013-11-21,41.87224985090264,-87.72766798382456,2013,Grocery Store
156550,1319978,nelson s mini mart,2108434.0,grocery store,60637.0,2013-12-17,41.78408593235502,-87.61049110267204,2013,Grocery Store
156556,1228325,mayflower food,1168793.0,grocery store,60616.0,2013-11-18,41.85426530391589,-87.6321895067634,2013,Grocery Store
156565,1395213,homan fresh meat market  inc ,2304107.0,grocery store,60623.0,2013-12-30,41.85644544341349,-87.71010292269318,2013,Grocery Store
156569,1199205,trader joe s,1991804.0,grocery store,60614.0,2013-11-25,41.93266601166945,-87.64618727181544,2013,Grocery Store
156587,1228376,hong kong seafood city  inc ,1767514.0,grocery store,60616.0,2013-12-12,41.85399063972469,-87.63275726210783,2013,Grocery Store
156595,1367456,k town food i  inc,2064310.0,grocery store,60624.0,2013-12-26,41.87502775205632,-87.73542837787184,2013,Grocery Store
156598,1296708,midwest,1677326.0,grocery store,60649.0,2013-11-25,41.75897353925762,-87.57729918921719,2013,Grocery Store
156599,1072701,aldi  88,2079745.0,grocery store,60620.0,2013-12-16,41.73989670562101,-87.63208906523245,2013,Grocery Store
156646,1375724,indo pak meat grocery llc,2021899.0,grocery store,60625.0,2013-11-29,41.96836564028846,-87.72658635101799,2013,Grocery Store
156656,1107011,world fresh market,1492163.0,grocery store,60659.0,2013-12-06,41.997817925956696,-87.69125188556993,2013,Grocery Store
156668,1375765,parkside food store inc,60656.0,grocery store,60621.0,2013-12-02,41.7724435945988,-87.65425192159404,2013,Grocery Store
156669,1391275,cvs pharmacy  8698,1695272.0,grocery store,60610.0,2013-11-22,41.90373979649519,-87.63129317946974,2013,Grocery Store
156701,1329647,jay s food   liquor inc,26782.0,grocery store,60630.0,2013-12-09,41.976400809838864,-87.78800422630542,2013,Grocery Store
156722,1383308,north ave food mart inc,2233075.0,grocery store,60639.0,2013-12-13,41.90949904495798,-87.76471097912471,2013,Grocery Store
156724,1383343,zozo,2158217.0,grocery store,60647.0,2013-12-27,41.93178164211677,-87.71863201286443,2013,Grocery Store
156740,1236124,dominick s  2890,2042094.0,grocery store,60640.0,2013-12-03,41.976481667612425,-87.65483977716684,2013,Grocery Store
156777,1375775,afandina grocery   meat market  inc,2294366.0,grocery store,60625.0,2013-12-03,41.96486826553557,-87.70821365991304,2013,Grocery Store
156795,1329641,bp amoco,1887541.0,grocery store,60634.0,2013-12-06,41.94562902171779,-87.80687135285183,2013,Grocery Store
156803,1393252,fannie may,2196876.0,grocery store,60618.0,2013-12-12,41.94240558169695,-87.68840366019266,2013,Grocery Store
156811,1376130,lockwood food mart  inc ,2299203.0,grocery store,60651.0,2013-12-19,41.90233017044402,-87.75831293619554,2013,Grocery Store
156812,1319945,marthon gas   food mart,1141779.0,grocery store,60615.0,2013-12-03,41.80919351320132,-87.62297930641978,2013,Grocery Store
156816,1375946,7 eleven  26210j,2041899.0,grocery store,60659.0,2013-12-09,41.99792158092283,-87.68507479988922,2013,Grocery Store
156823,1155173,eddie s food   liquor,1226.0,grocery store,60628.0,2013-12-02,41.71633044673004,-87.6043502679803,2013,Grocery Store
156837,1324794,one stop mart,2185375.0,grocery store,60606.0,2013-11-19,41.87800659305067,-87.63396690974706,2013,Grocery Store
156863,1375715,lolin food inc ,2298237.0,grocery store,60623.0,2013-11-29,41.84232306101153,-87.71244395700559,2013,Grocery Store
156879,1375545,7 eleven  33768h,2289688.0,grocery store,60631.0,2013-11-19,41.99439639473516,-87.80239443586892,2013,Grocery Store
156884,1375507,mercado mexicano,2252812.0,grocery store,60623.0,2013-11-18,41.84417514429002,-87.72204721914427,2013,Grocery Store
156898,1391281,cvs pharmacy  3742,1675887.0,grocery store,60610.0,2013-11-25,41.88908714541623,-87.6320084936841,2013,Grocery Store
156904,1151874,dulceria acapulco,1942734.0,grocery store,60608.0,2013-12-11,41.85369311668322,-87.69535819955435,2013,Grocery Store
156923,1393245,salud es vida herbalife,2158002.0,grocery store,60618.0,2013-12-06,41.93992417098026,-87.7254431040074,2013,Grocery Store
156951,1319975,aldi,1922075.0,grocery store,60637.0,2013-12-16,41.77430588118815,-87.6056480253388,2013,Grocery Store
156957,1375610,groceries flores,1958619.0,grocery store,60632.0,2013-11-22,41.79906963097107,-87.6940941032688,2013,Grocery Store
156988,1391280,cvs pharmacy  0788,1621314.0,grocery store,60654.0,2013-11-25,41.89005068195419,-87.63722635541548,2013,Grocery Store
156996,1391361,7 eleven   33809c,2192593.0,grocery store,60626.0,2013-12-30,42.00561787658474,-87.66078593720823,2013,Grocery Store
157071,1391343,munchies on larrabee,2073925.0,grocery store,60610.0,2013-12-20,41.9008485875064,-87.64325553650413,2013,Grocery Store
157076,1174653,jewel food store  2500,2293801.0,grocery store,60607.0,2013-12-03,41.864521193743535,-87.63930409963562,2013,Grocery Store
157082,1391293,kesh foods,1444277.0,grocery store,60610.0,2013-12-02,41.89865217853064,-87.62839997352812,2013,Grocery Store
157087,1375877,fuzziwig s candy factory,2152018.0,grocery store,60657.0,2013-12-05,41.9330132475348,-87.6452287444637,2013,Grocery Store
157088,1319912,village foods,6936.0,grocery store,60615.0,2013-11-18,41.802359209138494,-87.58840008715637,2013,Grocery Store
157100,1319930,jimmy s food mart,1888724.0,grocery store,60653.0,2013-11-25,41.8273632480103,-87.62182693101032,2013,Grocery Store
157103,1391282,best western river north hotel,8192.0,grocery store,60654.0,2013-11-26,41.8923036656378,-87.63226860744216,2013,Grocery Store
157115,1375808,h   m food mart,64817.0,grocery store,60619.0,2013-12-03,41.73064129109383,-87.60452987310461,2013,Grocery Store
157151,1324843,cvs pharmacy  8731,1695282.0,grocery store,60606.0,2013-12-20,41.88200785877847,-87.63824540361531,2013,Grocery Store
157157,1155171,the allstar quick mart,2157395.0,grocery store,60628.0,2013-11-21,41.68511352066478,-87.63094875183687,2013,Grocery Store
157166,1319992,treasure island foods,1885138.0,grocery store,60615.0,2013-12-24,41.79530123910909,-87.58822589957649,2013,Grocery Store
157168,1072709,hoyne discount  inc,2163247.0,grocery store,60620.0,2013-12-20,41.75009532509183,-87.67527919957801,2013,Grocery Store
157174,1319984,golden food mart,2299225.0,grocery store,60619.0,2013-12-19,41.751104138301,-87.60926374121179,2013,Grocery Store
157188,1072711,mobile,2027224.0,grocery store,60636.0,2013-12-23,41.76278384194664,-87.68333690607514,2013,Grocery Store
157192,1367425,tofi food market inc,2031647.0,grocery store,60644.0,2013-11-27,41.87495722969212,-87.74491858305608,2013,Grocery Store
157207,1115140,warehouse liquors,1122922.0,grocery store,60605.0,2013-11-18,41.873665507986445,-87.62612547903451,2013,Grocery Store
157244,1375967,look in  grocery   deli,2192553.0,grocery store,60623.0,2013-12-10,41.858868389257495,-87.73277498059485,2013,Grocery Store
157263,1376112,la burbuja  inc ,1275350.0,grocery store,60623.0,2013-12-18,41.83508024890906,-87.71805393870414,2013,Grocery Store
157285,1367423,neighborhood supermarket inc,1479935.0,grocery store,60644.0,2013-11-26,41.87297585378775,-87.76144998426264,2013,Grocery Store
157299,1072674,a lot to save food,2179596.0,grocery store,60636.0,2013-11-26,41.779495714401854,-87.65481856464251,2013,Grocery Store
157303,1375638,the warehouse,1843355.0,grocery store,60628.0,2013-11-25,41.67798600172843,-87.63620085513435,2013,Grocery Store
157350,1329626,cvs pharmacy  5482,1964598.0,grocery store,60634.0,2013-11-25,41.94633638555284,-87.76662508180324,2013,Grocery Store
157362,1115142,south loop market,2179564.0,grocery store,60605.0,2013-11-21,41.86512195007329,-87.62080972010526,2013,Grocery Store
157391,1072707,pete s meat   grocery 2,1646096.0,grocery store,60636.0,2013-12-20,41.76469612104134,-87.67359278470066,2013,Grocery Store
157394,1375700,dollar general  14614,2262737.0,grocery store,60628.0,2013-11-27,41.70717395149417,-87.6314024214215,2013,Grocery Store
157407,1376143,supermercado garibaldi,2102875.0,grocery store,60640.0,2013-12-19,41.96896366035677,-87.67168512030054,2013,Grocery Store
157409,1375926,hanas finer food and liquor,12217.0,grocery store,60619.0,2013-12-09,41.73671244036,-87.59245525003948,2013,Grocery Store
157423,1151871,teleoloapan grocery,2088709.0,grocery store,60608.0,2013-12-11,41.85376588735061,-87.69536059861551,2013,Grocery Store
157426,1199245,menard s,2289507.0,grocery store,60614.0,2013-12-10,41.928837384912974,-87.67397131999374,2013,Grocery Store
157476,1367460,noor food,1169247.0,grocery store,60644.0,2013-12-27,41.87302363142662,-87.75752317492451,2013,Grocery Store
157483,1375896,el  paseo  boricua,1301216.0,grocery store,60622.0,2013-12-06,41.90305420014172,-87.69477042078294,2013,Grocery Store
157521,1296728,walgreens   06238,1197743.0,grocery store,60617.0,2013-12-12,41.72236397608408,-87.57489876983635,2013,Grocery Store
157546,1324827,riverside lobby shop,19073.0,grocery store,60606.0,2013-12-12,41.881664289382925,-87.63888744408949,2013,Grocery Store
157568,1383312,lala food mart,2087688.0,grocery store,60622.0,2013-12-16,41.90201943180487,-87.69671000491572,2013,Grocery Store
157584,1376175,bharat bazaar,1225441.0,grocery store,60625.0,2013-12-24,41.96837595470103,-87.72566094178205,2013,Grocery Store
157634,1376152,123 grocery plus,2294445.0,grocery store,60612.0,2013-12-20,41.891819111189626,-87.70629658310831,2013,Grocery Store
157638,1367440,daily food   liquor inc,63980.0,grocery store,60624.0,2013-12-05,41.86991790900095,-87.72519091966551,2013,Grocery Store
157639,1375853,san miguel,2069077.0,grocery store,60623.0,2013-12-05,41.84232306101153,-87.71244395700559,2013,Grocery Store
157653,1375954,longwood foods,1143139.0,grocery store,60643.0,2013-12-10,41.69171956132765,-87.67211424461023,2013,Grocery Store
157662,1376037,111 th food   cellular  inc,2125455.0,grocery store,60628.0,2013-12-13,41.692638562810416,-87.61238749553249,2013,Grocery Store
157686,1296736,rays e mart,2196633.0,grocery store,60628.0,2013-12-16,41.67226959743144,-87.64157648084111,2013,Grocery Store
157697,1375712,n   b dollar store plus,2298542.0,grocery store,60620.0,2013-11-27,41.75035201820849,-87.65612143834691,2013,Grocery Store
157708,1107006,muller meats,1195463.0,grocery store,60659.0,2013-12-04,41.99038076366031,-87.69125603349892,2013,Grocery Store
157724,1296735,saginaw wine and liquors  inc ,38682.0,grocery store,60617.0,2013-12-16,41.74442509646372,-87.56061004382433,2013,Grocery Store
157727,1319929,67th one stop food   liquor  inc ,15187.0,grocery store,60637.0,2013-11-25,41.77342281569598,-87.58833686934243,2013,Grocery Store
157751,1367426,van buren market,2130164.0,grocery store,60644.0,2013-11-27,41.87495722969212,-87.74491858305608,2013,Grocery Store
157835,1376199,roosevelt jefferson clinton llc,2298667.0,grocery store,60607.0,2013-12-30,41.86889238849353,-87.64209545611185,2013,Grocery Store
157838,1072697,rainbow x o,1891734.0,grocery store,60636.0,2013-12-12,41.764859382425385,-87.66394017630476,2013,Grocery Store
157846,1072676,four brothers food   liquor inc,43037.0,grocery store,60620.0,2013-12-02,41.75021123096092,-87.66634242788096,2013,Grocery Store
157852,1296712,downtown marathon,2032168.0,grocery store,60617.0,2013-11-27,41.72231521886031,-87.57885432340228,2013,Grocery Store
157866,1387288,7 eleven  35750h,2138608.0,grocery store,60647.0,2013-12-10,41.911442870211495,-87.67933447184733,2013,Grocery Store
157888,1383268,food 4 less,1884255.0,grocery store,60639.0,2013-11-29,41.909505147743424,-87.74695993627232,2013,Grocery Store
157902,1329644,peerless trading corp,9803.0,grocery store,60630.0,2013-12-06,41.96755892091478,-87.77608297023237,2013,Grocery Store
157911,1072683,village food market inc ,70387.0,grocery store,60620.0,2013-12-04,41.75018330757726,-87.66822885155746,2013,Grocery Store
157913,1115200,afc sushi  jewel osco  3345,1516497.0,grocery sushi prep ,60605.0,2013-12-23,41.86672435405559,-87.62596114837754,2013,Grocery Store
157920,1151819,supermarket la familia,2293604.0,grocery store,60608.0,2013-11-19,41.85035962181883,-87.68326750980562,2013,Grocery Store
157953,1107001,daallo meat   grocery  inc,2013707.0,grocery store,60659.0,2013-12-02,41.997682115657,-87.69891315910674,2013,Grocery Store
157957,1151891,meztisoy food market,2299440.0,grocery store,60608.0,2013-12-16,41.85761819384384,-87.67092700126422,2013,Grocery Store
157967,1383342,amman one stop shop,2299559.0,grocery store,60647.0,2013-12-27,41.93178164211677,-87.71863201286443,2013,Grocery Store
157974,1296733,cvs pharmacy  2935,1423194.0,grocery store,60617.0,2013-12-13,41.736481612062526,-87.58578401346767,2013,Grocery Store
157981,1115148,new colony shop,1766089.0,grocery store,60605.0,2013-11-22,41.876791679299416,-87.62915285947396,2013,Grocery Store
157982,1151896,moroleon foods  2 inc ,1801622.0,grocery store,60632.0,2013-12-17,41.81577111582739,-87.68938589725278,2013,Grocery Store
158006,1375494,ashtar  market,2003351.0,grocery store,60659.0,2013-11-18,41.99761554442444,-87.70273035752693,2013,Grocery Store
158008,1375995,n e fruits,5510.0,grocery store,60659.0,2013-12-11,41.99033663915913,-87.70753441470691,2013,Grocery Store
158015,1151852,el ranchito food,1383420.0,grocery store,60652.0,2013-12-05,41.74137416696124,-87.72150639395679,2013,Grocery Store
158027,1151894,carniceria la hacienda no 2 inc,2298253.0,grocery store,60629.0,2013-12-17,41.77868471619929,-87.71425166330465,2013,Grocery Store
158044,1375566,a k food market  inc ,2013240.0,grocery store,60619.0,2013-11-20,41.74456966035583,-87.6051967898045,2013,Grocery Store
158049,1329643,the cellar,1574603.0,grocery store,60634.0,2013-12-06,41.93661313284872,-87.80684752110089,2013,Grocery Store
158063,1107002,mega mart,2294442.0,grocery store,60626.0,2013-12-02,42.01256119339587,-87.67477437039051,2013,Grocery Store
158071,1345686,300 concession shop inc ,59091.0,grocery store,60601.0,2013-11-22,41.88462378463585,-87.62047604442976,2013,Grocery Store
158072,1375589,the gourmet grape,2179747.0,grocery store,60657.0,2013-11-21,41.94632229643331,-87.64960234672562,2013,Grocery Store
158075,1228365,park packing co,16523.0,grocery store,60609.0,2013-12-09,41.81939879630643,-87.6650809078756,2013,Grocery Store
158112,1329630,addison superette,45036.0,grocery store,60634.0,2013-11-26,41.94584669927212,-87.77989370518668,2013,Grocery Store
158125,1236116,ishtar  market,2157975.0,grocery store,60659.0,2013-11-25,41.99761554442444,-87.70273035752693,2013,Grocery Store
158130,1376170,cvs pharmacy  8507,1697605.0,grocery store,60617.0,2013-12-23,41.728974869776486,-87.55449740137384,2013,Grocery Store
158165,1319925,mr g s food   liquor,1429.0,grocery store,60637.0,2013-11-22,41.789429857455325,-87.61784033976139,2013,Grocery Store
158182,1296742,family dollars   5635,1355179.0,grocery store,60617.0,2013-12-18,41.68105255954936,-87.53659556889872,2013,Grocery Store
158197,1389291,butcher block specialties  inc,2142494.0,grocery store,60641.0,2013-12-20,41.9358159257352,-87.74661869715355,2013,Grocery Store
158274,1391284,marina food   liquor,1143291.0,grocery store,60654.0,2013-11-26,41.88755787281287,-87.62815306467208,2013,Grocery Store
158303,1387308,marathon fuel   mini mart,2304092.0,grocery store,60624.0,2013-12-30,41.882211292040566,-87.7108986080365,2013,Grocery Store
158307,1151876,open pantry,42523.0,grocery store,60655.0,2013-12-12,41.69867524086993,-87.72049485543255,2013,Grocery Store
158320,1072704,loomis food market,2004423.0,grocery store,60636.0,2013-12-19,41.76871573470448,-87.6589218559854,2013,Grocery Store
158359,1389284,tierra santa inc,2059662.0,grocery store,60641.0,2013-12-13,41.96080286499475,-87.73083735124534,2013,Grocery Store
158371,1375803,edvan s  food,2113844.0,grocery store,60625.0,2013-11-29,41.96576550640021,-87.6865212714869,2013,Grocery Store
158374,1393225,speedway   8317,74264.0,grocery store,60618.0,2013-11-21,41.943049987813325,-87.67859461686704,2013,Grocery Store
158398,1324797,gateway newstand,1803358.0,grocery store,60606.0,2013-11-19,41.87858156072147,-87.6385786681057,2013,Grocery Store
158418,1305456,carniceria y fruteria favela,68064.0,grocery store,60629.0,2013-11-21,41.78621896335036,-87.69840666972154,2013,Grocery Store
158428,1375663,cleopatra meat   grocery,64578.0,grocery store,60625.0,2013-11-19,41.96486826553557,-87.70821365991304,2013,Grocery Store
158435,1329622,cvs pharmacy  1676,1921197.0,grocery store,60634.0,2013-11-21,41.93821339881632,-87.7856085235934,2013,Grocery Store
158448,1375981,my choice wholesale and retail,2298968.0,grocery store,60645.0,2013-12-10,41.998143643511376,-87.68760434675318,2013,Grocery Store
158460,1343575,blessing mini mart,2294422.0,grocery store,60624.0,2013-11-21,41.87224985090264,-87.72766798382456,2013,Grocery Store
158475,1375840,tony s quick food mart,2192803.0,grocery store,60619.0,2013-12-04,41.75853084269696,-87.61446199533826,2013,Grocery Store
158490,1375867,16th st food mart,1845450.0,grocery store,60623.0,2013-12-05,41.85907437985173,-87.71590916063465,2013,Grocery Store
158537,1375925,mercadito la economica,1442242.0,grocery store,60623.0,2013-12-09,41.83904453793104,-87.71083569390026,2013,Grocery Store
158556,1376075,more for less,1948557.0,grocery store,60651.0,2013-12-16,41.89487824738007,-87.74782978563464,2013,Grocery Store
158577,1376007,osco drug  3376,2271444.0,grocery store,60661.0,2013-12-12,41.88891817356032,-87.64447797292972,2013,Grocery Store
158619,1367455,cermak food mart,1821870.0,grocery store,60623.0,2013-12-26,41.85158988257894,-87.72945401335832,2013,Grocery Store
158637,1393251,grandslam marathon,2041783.0,grocery store,60618.0,2013-12-12,41.93878145947897,-87.68775521476529,2013,Grocery Store
158645,1151907,walmart neighborhood market  5646,2164056.0,grocery store,60608.0,2013-12-19,41.85186827166058,-87.69007512129495,2013,Grocery Store
158662,1375609,lake point market,1985443.0,grocery store,60611.0,2013-11-22,41.89127929349215,-87.61410753333017,2013,Grocery Store
158705,1319920,save a lot  882,2079367.0,grocery store,60637.0,2013-11-21,41.78032161011687,-87.61713538037563,2013,Grocery Store
158753,1387275,hateeb mini mart,2137176.0,grocery store,60612.0,2013-12-02,41.87363647787246,-87.70113405913219,2013,Grocery Store
158760,1361442,cortfield services  inc,2069130.0,grocery store,60622.0,2013-10-24,41.89530169394291,-87.67718110684518,2013,Grocery Store
158767,1375987,west lakeview liquors  inc,2054018.0,grocery store,60618.0,2013-12-11,41.94691370167882,-87.68318103147612,2013,Grocery Store
158774,1389267,tulcingo  plaza,2003608.0,grocery store,60641.0,2013-11-25,41.954815177189246,-87.72779753099908,2013,Grocery Store
158783,1296727,john s corner store,1678171.0,grocery store,60617.0,2013-12-11,41.7026444162474,-87.54024749218388,2013,Grocery Store
158800,1106984,chicago zabiha halal meat mark,2032147.0,grocery and butcher,60659.0,2013-11-18,41.99767579939321,-87.68667806190682,2013,Grocery Store
158818,1151831,aaa food,1120899.0,grocery store,60608.0,2013-11-21,41.84659196320168,-87.69293766460069,2013,Grocery Store
158858,1375568,harlem newstand,2284193.0,grocery store,60656.0,2013-11-20,41.98221573286358,-87.80708846765953,2013,Grocery Store
158869,1367454,pulaski dollar  food  inc ,2013307.0,grocery store,60624.0,2013-12-23,41.87153178494351,-87.7252217460104,2013,Grocery Store
158897,1107008,quick stop food mart,39791.0,grocery store,60645.0,2013-12-05,42.004750073091,-87.69942277659017,2013,Grocery Store
158925,1389293,optimal deli  inc,1991322.0,grocery store,60641.0,2013-12-23,41.94589510086973,-87.75664585225653,2013,Grocery Store
158965,1376122,up town produce  inc ,2299262.0,grocery store,60640.0,2013-12-18,41.965027342454725,-87.6611598807866,2013,Grocery Store
158996,1375656,63rd foods mart  1  inc ,2146418.0,grocery store,60629.0,2013-11-25,41.778896937925,-87.70075757526037,2013,Grocery Store
159004,1391303,chicago orleans foodmart,1677420.0,grocery store,60610.0,2013-12-05,41.89665338076949,-87.637681658139,2013,Grocery Store
159050,1367417,chicago central park food mart,1123251.0,grocery store,60651.0,2013-11-22,41.89556635438464,-87.71674269615781,2013,Grocery Store
159060,1305472,relay  4202,2125352.0,grocery store,60638.0,2013-12-13,41.789329323265385,-87.74164564419637,2013,Grocery Store
159093,1376035,garrett popcorn shops,1898214.0,grocery store,60666.0,2013-12-13,42.008536400868735,-87.91442843927047,2013,Grocery Store
159136,1387285,w  crossings grocer,1948288.0,grocery store,60647.0,2013-12-06,41.91055142102059,-87.67979335805668,2013,Grocery Store
159138,1329623,max s food   liquor,1959214.0,grocery store,60634.0,2013-11-21,41.93849347975001,-87.78119682742441,2013,Grocery Store
159143,1345536,metromart,1621099.0,grocery store,60603.0,2013-09-12,41.87998851304621,-87.63068884103124,2013,Grocery Store
159147,1375881,jerry food mart,1095700.0,grocery store,60626.0,2013-12-05,42.00549105122981,-87.6702016081931,2013,Grocery Store
159188,1296734,walgreens  02387,1740300.0,grocery store,60617.0,2013-12-16,41.73703983105779,-87.58447691192603,2013,Grocery Store
159199,1367432,madison shop   save inc ,2203361.0,grocery store,60644.0,2013-12-03,41.88024001496623,-87.75685540109451,2013,Grocery Store
159214,1375563,ms  d s candy shop,2179704.0,grocery store,60628.0,2013-11-20,41.706892384197566,-87.63626562743048,2013,Grocery Store
159218,1155170,rayyan food  inc ,2027317.0,grocery store,60628.0,2013-11-21,41.68517594450479,-87.62582846038941,2013,Grocery Store
159299,1383330,carniceria guanajuato,2069477.0,grocery store,60639.0,2013-12-23,41.92418914583158,-87.75822974122624,2013,Grocery Store
159334,1375514,new york deli  inc ,2079741.0,grocery store,60653.0,2013-11-18,41.80945773588204,-87.61883285886145,2013,Grocery Store
159375,1228379,fat lee grocery store,1647439.0,grocery store,60616.0,2013-12-13,41.85164923388343,-87.63183832330219,2013,Grocery Store
159396,1329637,jj peppers food store,1094878.0,grocery store,60634.0,2013-12-05,41.94571656305218,-87.76660329761108,2013,Grocery Store
159410,1115156,7   eleven,46907.0,grocery store,60605.0,2013-11-26,41.87448116568133,-87.62935653990546,2013,Grocery Store
159529,1329638,al bayan grocery inc ,1542202.0,grocery store,60634.0,2013-12-05,41.93756465015517,-87.78605436856363,2013,Grocery Store
159555,1375522,grand food   liquor mart,1997695.0,grocery store,60654.0,2013-11-19,41.89169611206325,-87.6341459050355,2013,Grocery Store
159557,1343451,lamajak,1847373.0,grocery store,60612.0,2013-09-13,41.8732169991148,-87.67567517654017,2013,Grocery Store
159563,1343573,west side shop   save,2262485.0,grocery store,60623.0,2013-11-21,41.85896229999507,-87.72612326321972,2013,Grocery Store
159571,1389279,laramie bakery   deli,11587.0,grocery store,60641.0,2013-12-11,41.93544657128771,-87.75671871371809,2013,Grocery Store
159590,1072693,excel,1519259.0,grocery store,60620.0,2013-12-10,41.73648032953556,-87.65320973689802,2013,Grocery Store
159619,1389250,elston grocers,7362.0,grocery store,60641.0,2013-11-19,41.95975035295093,-87.72820454561011,2013,Grocery Store
159637,1228391,wing cheong grocery inc,1515706.0,grocery store,60616.0,2013-12-18,41.850468483802665,-87.63181591235539,2013,Grocery Store
159664,1155167,express food mart   cellular,2079148.0,grocery store,60628.0,2013-11-19,41.692573148327895,-87.62805289398561,2013,Grocery Store
159670,1107003,super gift   groceries,2079754.0,grocery store,60659.0,2013-12-02,41.99765846224234,-87.68767204213614,2013,Grocery Store
159677,1376190,supermercado chapala,32236.0,grocery store,60626.0,2013-12-27,42.01197579951184,-87.67438405776932,2013,Grocery Store
159684,1236122,7 eleven  33732a,1963533.0,grocery store,60660.0,2013-11-27,41.9835594257736,-87.65738202407279,2013,Grocery Store
159687,1199233,milito s mobil,1883644.0,grocery store,60614.0,2013-12-05,41.92544377898498,-87.656314390191,2013,Grocery Store
159710,1367437,key food chicago,2008865.0,grocery store,60644.0,2013-12-04,41.87495722969212,-87.74491858305608,2013,Grocery Store
159715,1383307,m  l  k  convenient store,2298983.0,grocery store,60639.0,2013-12-13,41.90949904495798,-87.76471097912471,2013,Grocery Store
159718,1375761,roseland food mart,1769553.0,grocery store,60628.0,2013-12-02,41.69998846562658,-87.62107645649334,2013,Grocery Store
159732,1072688,e mni mart  inc ,2298364.0,grocery store,60636.0,2013-12-09,41.784727660229166,-87.66420141163329,2013,Grocery Store
159739,1387270,fiore delicatessen,3750.0,grocery store,60612.0,2013-11-26,41.89317144188936,-87.68419975235183,2013,Grocery Store
159749,1319988,family food mart,1301398.0,grocery store,60619.0,2013-12-20,41.749362768013256,-87.60533298101136,2013,Grocery Store
159754,1367429,madison mini mart,2162235.0,grocery store,60644.0,2013-12-02,41.88049014080993,-87.75443273133736,2013,Grocery Store
159790,1151822,sweet food   gifts,1739772.0,grocery store,60608.0,2013-11-20,41.83292644959862,-87.64630325043836,2013,Grocery Store
159816,1383245,dominick s finer foods   store   2775,1820382.0,grocery store,60622.0,2013-11-20,41.89578522959797,-87.67793089259229,2013,Grocery Store
159842,1367448,new food market  inc ,2147081.0,grocery store,60644.0,2013-12-19,41.879978065342975,-87.77458167013508,2013,Grocery Store
159867,1375518,michigan candy store,2004511.0,grocery store,60611.0,2013-11-18,41.90080164945196,-87.6242724679302,2013,Grocery Store
159897,1228389,don tony s food store,1119389.0,grocery store,60609.0,2013-12-18,41.8141543948973,-87.66628065812077,2013,Grocery Store
159951,1375540,life spring health food,50537.0,grocery store,60657.0,2013-11-19,41.93970516259879,-87.65065013413742,2013,Grocery Store
159982,1296706,bagiana unlimited inc ,1974146.0,grocery store,60649.0,2013-11-25,41.75897353925762,-87.57729918921719,2013,Grocery Store
159985,1296729,commercial grocery,56894.0,grocery store,60617.0,2013-12-12,41.713497843474286,-87.55073310658338,2013,Grocery Store
160044,1383242,7 eleven  33328c,2113331.0,grocery store,60622.0,2013-11-19,41.90725859639066,-87.67281319045203,2013,Grocery Store
160047,1319974,cvs pharmacy  5836,1547606.0,grocery store,60615.0,2013-12-13,41.79957783364987,-87.5954321093407,2013,Grocery Store
160053,1343585,shell,2068916.0,grocery store,60623.0,2013-12-11,41.844407330022506,-87.70509984940453,2013,Grocery Store
160065,1367450,greenline food,1493766.0,grocery store,60644.0,2013-12-20,41.88676297672283,-87.75543709973353,2013,Grocery Store
160072,1107004,romanian kosher sausage co,4025.0,grocery store,60626.0,2013-12-04,42.01267850243645,-87.67479303634131,2013,Grocery Store
160106,1319913,king food mart,2129795.0,grocery store,60653.0,2013-11-18,41.8166750350858,-87.62132979928587,2013,Grocery Store
160118,1376145,candyality ltd ,1875308.0,grocery store,60657.0,2013-12-19,41.9442251832709,-87.66379230184032,2013,Grocery Store
160126,1376010,jewel food store  3376,1909968.0,grocery store,60661.0,2013-12-12,41.88891817356032,-87.64447797292972,2013,Grocery Store
160132,1296539,park view mart  inc,2278759.0,grocery store,60649.0,2013-08-26,41.77336840854663,-87.57663855217714,2013,Grocery Store
160173,1072695,saveway supermarket,2189571.0,grocery store,60636.0,2013-12-12,41.77954376089357,-87.66552258516764,2013,Grocery Store
160248,1329639,aswaq kan zaman,2252970.0,grocery store,60634.0,2013-12-05,41.95230949839922,-87.80739896000573,2013,Grocery Store
160364,1319951,jamaica food   liquor inc,22679.0,grocery store,60653.0,2013-12-05,41.81702976524998,-87.60685791987792,2013,Grocery Store
160368,1151791,gaviota,2084805.0,grocery store,60608.0,2013-11-07,41.84900307242926,-87.67835692516063,2013,Grocery Store
160393,1370009,adrians food market,2004600.0,grocery store,60647.0,2013-10-28,41.93198942290801,-87.71969926512013,2013,Grocery Store
160395,1235943,old world market,7507.0,grocery store,60640.0,2013-08-28,41.97547539863465,-87.65969701169435,2013,Grocery Store
160412,1369481,quick shop food mart,2177215.0,grocery store,60649.0,2013-10-07,41.75165834497028,-87.58058412923802,2013,Grocery Store
160414,1110401,teavana corporation,1592301.0,grocery store,60611.0,2013-11-14,41.8977408562525,-87.62396131598219,2013,Grocery Store
160435,1360755,food 4 less  570,1928152.0,grocery store,60620.0,2013-09-09,41.73638004558818,-87.62750921902564,2013,Grocery Store
160439,1305392,jewel food store  3721,1225534.0,grocery store,60638.0,2013-09-06,41.79435485319725,-87.77052715211342,2013,Grocery Store
160461,1319747,hyde park grocery   deli  inc ,2283136.0,grocery store,60615.0,2013-09-06,41.80252988698073,-87.59193633932374,2013,Grocery Store
160482,1383215,humboldt park community cultur,2113645.0,grocery store,60622.0,2013-11-07,41.90284877198458,-87.69306763647268,2013,Grocery Store
160495,1151648,fairplay finer food,10940.0,grocery store,60608.0,2013-09-20,41.85198383957328,-87.68578570420526,2013,Grocery Store
160504,1372258,terry s food mart  inc ,1820292.0,grocery store,60610.0,2013-11-08,41.90770710177844,-87.6373750389684,2013,Grocery Store
160505,1369830,andy s deli,1351717.0,grocery store,60630.0,2013-10-21,41.980337613209805,-87.77217917253894,2013,Grocery Store
160508,1106857,que syrah fine wines,2252884.0,grocery store,60613.0,2013-09-18,41.949373985863005,-87.66422747854159,2013,Grocery Store
160511,1391233,walgreen s  1171,18540.0,grocery store,60657.0,2013-11-04,41.93285981738872,-87.64473245733261,2013,Grocery Store
160531,1360459,town s limits cantina,2270408.0,grocery store,60640.0,2013-08-22,41.968905801678105,-87.67613519840246,2013,Grocery Store
160538,1360698,snappy convenience center,1193016.0,grocery store,60632.0,2013-09-05,41.82411285370147,-87.68813503587118,2013,Grocery Store
160539,1367255,leamington foods inc,1933344.0,grocery store,60624.0,2013-09-10,41.866497308125936,-87.7073377871256,2013,Grocery Store
160548,1360710,our neighborhood quick stop,2279515.0,grocery store,60624.0,2013-09-05,41.875688749341,-87.7256458606552,2013,Grocery Store
160550,1389242,bel park food   liquor,1678151.0,grocery store,60641.0,2013-11-15,41.93894783061534,-87.7460047806082,2013,Grocery Store
160567,1110388,east delaware pantry,39294.0,grocery store,60611.0,2013-10-29,41.89935473944382,-87.621791301926,2013,Grocery Store
160578,1372247,jewel food store  3368,1226337.0,grocery store,60654.0,2013-10-31,41.89242136613116,-87.62823487113711,2013,Grocery Store
160593,1345636,gateway newstands,2107905.0,grocery store,60601.0,2013-11-05,41.8854443881431,-87.6325821348462,2013,Grocery Store
160594,1099188,chicago produce,1865.0,grocery store,60625.0,2013-09-13,41.96848537331812,-87.71587132951537,2013,Grocery Store
160615,1228280,pershing center,1493623.0,grocery store,60609.0,2013-11-06,41.82351520329658,-87.63307500146024,2013,Grocery Store
160624,1343452,anna s food,7006.0,grocery store,60623.0,2013-09-13,41.86443509650306,-87.70546338183142,2013,Grocery Store
160626,1361079,7 eleven  29726j,2278525.0,grocery store,60613.0,2013-09-19,41.9491572433655,-87.64852661788835,2013,Grocery Store
160638,1360687,mariano s fresh market  8508,2163775.0,grocery store,60661.0,2013-09-04,41.88055424541424,-87.64747040571781,2013,Grocery Store
160643,1092567,afc sushi   dominick s  1695,1985453.0,grocery store,60614.0,2013-08-21,41.925268275703296,-87.65348756413924,2013,Grocery Store
160647,1369509,fresh  to  go,1991089.0,grocery store,60631.0,2013-10-07,41.98118072487806,-87.83916755770461,2013,Grocery Store
160653,1360311,lulu food mart  inc ,2279058.0,grocery store,60619.0,2013-08-16,41.7511154696891,-87.60863902482612,2013,Grocery Store
160658,1188702,nutrimax,2142237.0,grocery store,60618.0,2013-09-13,41.96125126209583,-87.7120521820261,2013,Grocery Store
160662,1099172,savory spice shop,2283350.0,grocery store,60625.0,2013-08-29,41.96805207285672,-87.68804000152717,2013,Grocery Store
160668,1151727,marquette supreme,18019.0,grocery store,60636.0,2013-10-18,41.77196605568995,-87.67377177792947,2013,Grocery Store
160673,1099150,kedzie   wilson food  inc ,1357685.0,grocery store,60625.0,2013-08-21,41.964560982284496,-87.708203531794,2013,Grocery Store
160691,1151672,dollar junction,2262561.0,grocery store,60636.0,2013-10-01,41.77941405614786,-87.67478772951263,2013,Grocery Store
160710,1099259,jewel food store  3454,1325.0,grocery store,60618.0,2013-10-30,41.95910043303784,-87.6823922417421,2013,Grocery Store
160711,1345652,news stand,1681509.0,grocery store,60602.0,2013-11-12,41.8838242127101,-87.62928951434209,2013,Grocery Store
160715,1360624,walmart  5965,2184322.0,grocery store,60628.0,2013-09-03,41.69631368397275,-87.59663224393329,2013,Grocery Store
160762,1367238,aldi s,1817904.0,grocery store,60707.0,2013-08-27,41.92376040174287,-87.78874776255901,2013,Grocery Store
160767,1369320,supermercado barrera,1547554.0,grocery store,60647.0,2013-09-30,41.923556675921546,-87.69864676647725,2013,Grocery Store
160768,1228196,richwell market,1070189.0,grocery store bakery,60616.0,2013-09-25,41.85665717815976,-87.63875334531697,2013,Grocery Store
160784,1296648,farmers food basket,1618851.0,grocery store,60637.0,2013-10-23,41.780542391504,-87.60432678394078,2013,Grocery Store
160788,1360242,supermercado el mexicano,2120333.0,grocery store,60626.0,2013-08-13,42.00358497425322,-87.67235193189273,2013,Grocery Store
160789,1296597,grove liquors,36990.0,grocery store,60637.0,2013-09-26,41.77328619005114,-87.60591910261032,2013,Grocery Store
160790,1360508,ed s food mart  inc ,1939028.0,grocery store,60628.0,2013-08-27,41.67958373431513,-87.62041276496329,2013,Grocery Store
160795,1370080,jesse scott,4440.0,grocery store,60623.0,2013-10-30,41.86123830886882,-87.72517128953545,2013,Grocery Store
160852,1343455,dailow food,2284552.0,grocery store,60623.0,2013-09-16,41.859075027185455,-87.71581766550743,2013,Grocery Store
160868,1369781,jewel food store  3344,1192905.0,grocery store,60608.0,2013-10-18,41.86625417614275,-87.66652414013105,2013,Grocery Store
160876,1375219,state mini mart inc,2055146.0,grocery store,60628.0,2013-11-05,41.70727358161855,-87.62358592336454,2013,Grocery Store
160883,1369537,supermercado la fiesta  2  inc ,2289634.0,grocery store,60629.0,2013-10-08,41.77871036687314,-87.72750140410614,2013,Grocery Store
160892,1367233,new stop food   tobacco,2003784.0,grocery store,60624.0,2013-08-23,41.880803325267415,-87.72831805265798,2013,Grocery Store
160894,1343516,all n one food mart,2084327.0,grocery store,60623.0,2013-10-18,41.858979827518944,-87.72463886047677,2013,Grocery Store
160897,920410,halsted groceries inc ,1974844.0,grocery store,60621.0,2013-10-03,41.7652957077341,-87.64426896091481,2013,Grocery Store
160906,1370047,hudson news,2289520.0,grocery store,60666.0,2013-10-29,42.008536400868735,-87.91442843927047,2013,Grocery Store
160935,1369278,gas center,2289087.0,grocery store,60629.0,2013-09-27,41.77891322177408,-87.69971082884256,2013,Grocery Store
160955,1324739,200 convenience,1594798.0,grocery store,60601.0,2013-10-21,41.8846320757672,-87.6222479910888,2013,Grocery Store
160973,1296592,kiss dragon co ,1488929.0,grocery store,60616.0,2013-09-25,41.84995400192252,-87.63209419559098,2013,Grocery Store
160977,1343429,hi top convenience foods,1577466.0,grocery store,60612.0,2013-09-03,41.876237161140736,-87.70093101952185,2013,Grocery Store
160985,1072635,24 7 convenient food mart,2152577.0,grocery store,60636.0,2013-10-31,41.775449401449336,-87.68368953891188,2013,Grocery Store
160986,1324785,cvs pharmacy  5768,1336760.0,grocery store,60606.0,2013-11-13,41.87961626801739,-87.63976452343368,2013,Grocery Store
160990,1319831,one stop food   liquor store,1094.0,grocery store,60653.0,2013-10-17,41.816865148052045,-87.59868884416672,2013,Grocery Store
160997,920372,ray s food market,2124375.0,grocery store,60619.0,2013-08-20,41.737136249680695,-87.6046896237588,2013,Grocery Store
161014,1296607,dollar tree,2240037.0,grocery store,60649.0,2013-09-30,41.76427686822517,-87.58642854152318,2013,Grocery Store
161039,1360813,milwaukee s food   liquor,2256687.0,grocery store,60630.0,2013-09-10,41.965726066319874,-87.75871733013557,2013,Grocery Store
161046,1151736,supermercado rivera inc ,2245326.0,grocery store,60632.0,2013-10-21,41.80058537744086,-87.73208608412753,2013,Grocery Store
161047,1072562,t   m market  inc ,2254232.0,grocery store,60636.0,2013-09-19,41.78044753775588,-87.68381968063304,2013,Grocery Store
161051,1370043,la altena,1884883.0,grocery store,60632.0,2013-10-29,41.80115903747771,-87.6904036527848,2013,Grocery Store
161061,1360884,lulu s food   tobacco  inc ,1997566.0,grocery store,60651.0,2013-09-12,41.90260109664442,-87.72167212754783,2013,Grocery Store
161072,1296540,citgo,2070051.0,grocery store,60649.0,2013-08-26,41.77336840854663,-87.57663855217714,2013,Grocery Store
161078,1360589,sonia s supermarket,2279064.0,grocery store,60629.0,2013-08-29,41.779124762208056,-87.68529054257588,2013,Grocery Store
161083,1343531,grocery alvarez,2292948.0,grocery store,60623.0,2013-10-23,41.83862028660966,-87.72546732940809,2013,Grocery Store
161085,1324790,bond drug company of ill  1068,18653.0,grocery store,60606.0,2013-11-15,41.88457397692592,-87.63508282967,2013,Grocery Store
161103,1286327,jewel food store  3241,1398.0,grocery store,60622.0,2013-09-30,41.90624370308496,-87.6698622812847,2013,Grocery Store
161106,1155140,rosebud farm inc,3256.0,grocery store,60628.0,2013-09-09,41.65902472179736,-87.60909139773335,2013,Grocery Store
161116,1360852,two blue foods inc,66710.0,grocery store,60628.0,2013-09-11,41.71240378704223,-87.60512758944304,2013,Grocery Store
161119,1236041,j   b food   liquors inc,17168.0,grocery store,60640.0,2013-10-17,41.96865613731889,-87.67843847895287,2013,Grocery Store
161124,1319850,alley s food,2138488.0,grocery store,60637.0,2013-10-23,41.78917398251256,-87.61989129248225,2013,Grocery Store
161129,1166449,waleed trading inc ,1799916.0,grocery store,60618.0,2013-10-07,41.96119493314654,-87.71666552605475,2013,Grocery Store
161135,1319726,five one food mart inc,2256636.0,grocery store,60615.0,2013-08-30,41.80186863276546,-87.62391427138503,2013,Grocery Store
161138,1235994,pars persian store,2013828.0,grocery store,60640.0,2013-09-23,41.97780077031143,-87.6685037350446,2013,Grocery Store
161144,1360452,cermak produce no 3,2245439.0,grocery store,60639.0,2013-08-22,41.93164142040689,-87.7467199106462,2013,Grocery Store
161149,1375299,discount dollar plus,2026907.0,grocery store,60628.0,2013-11-08,41.70040599217204,-87.6427775083289,2013,Grocery Store
161162,1228130,food 4 less midwest  789,1272529.0,grocery store,60609.0,2013-09-03,41.80966852800657,-87.67511569638748,2013,Grocery Store
161174,1370017,dia food   liquor,41854.0,grocery store,60643.0,2013-10-28,41.68495579836147,-87.65972582896248,2013,Grocery Store
161180,1369954,quality choice meats  inc ,2293149.0,grocery store,60619.0,2013-10-24,41.76591792772419,-87.6095982840021,2013,Grocery Store
161195,1139104,treasure island foods inc,1303.0,grocery store,60610.0,2013-09-04,41.90302613678393,-87.6313487721985,2013,Grocery Store
161197,1296590,first choice market,2152285.0,grocery store,60617.0,2013-09-24,41.72997787118805,-87.55038259436638,2013,Grocery Store
161219,1375345,granville fruits,30446.0,grocery store,60660.0,2013-11-12,41.994458784776384,-87.65894716636456,2013,Grocery Store
161221,1296589,sam   maz inc,2073669.0,grocery store,60649.0,2013-09-23,41.75179276821392,-87.56995000081426,2013,Grocery Store
161229,1228142,francisco pollo vivo,1772459.0,slaughter house  grocery,60609.0,2013-09-05,41.82525518173788,-87.66572756993531,2013,Grocery Store
161239,1370084,a   d food market inc,1144262.0,grocery store,60623.0,2013-10-30,41.86084100268044,-87.7251616093027,2013,Grocery Store
161245,1367370,m  l  k   food mart  inc ,2027911.0,grocery store,60624.0,2013-11-04,41.87786890675828,-87.72569910538914,2013,Grocery Store
161251,1345594,7 eleven 33609,1822356.0,grocery store,60647.0,2013-10-22,41.91810712421967,-87.69736529538596,2013,Grocery Store
161276,1343502,afc sushi  strack   van til  4,1801210.0,grocery store,60647.0,2013-10-07,41.92948927399519,-87.68368782489382,2013,Grocery Store
161281,1343542,sharps food,2293588.0,grocery store,60623.0,2013-11-05,41.85882397025515,-87.73459109692567,2013,Grocery Store
161282,1367279,prestige food   liquor,16687.0,grocery store,60644.0,2013-09-20,41.880176953282295,-87.76180777121401,2013,Grocery Store
161295,1360749,j   h food   liquor,1301332.0,grocery store,60660.0,2013-09-09,41.9849755548221,-87.66922749215854,2013,Grocery Store
161307,1360648,target store t 2613,2283226.0,grocery store,60610.0,2013-09-03,41.90376960637752,-87.64336893987576,2013,Grocery Store
161310,1370036,la dolorosa grocery  2,1645700.0,grocery store,60632.0,2013-10-29,41.82290845958193,-87.70426021024545,2013,Grocery Store
161345,1166381,valero,2119753.0,grocery store,60618.0,2013-08-27,41.93931966318777,-87.71264128508213,2013,Grocery Store
161352,1369865,south shore pantry,1221333.0,grocery store,60649.0,2013-10-22,41.76639584183152,-87.57146890892194,2013,Grocery Store
161355,1296574,southside halal meat market   grocery,2164179.0,grocery store,60617.0,2013-09-13,41.74724060201805,-87.5860251882879,2013,Grocery Store
161369,1329613,7 eleven  3489104,2059645.0,grocery store,60630.0,2013-11-14,41.9676824884904,-87.73930534313814,2013,Grocery Store
161378,1369485,tobacco city,1738153.0,grocery store,60647.0,2013-10-07,41.91748640064961,-87.70899097096846,2013,Grocery Store
161390,1367346,walgreens  15065,2196095.0,grocery store,60647.0,2013-10-18,41.91060813766019,-87.67757727904994,2013,Grocery Store
161396,1375317,jed s fruit   vegetable mrk,9691.0,grocery store,60628.0,2013-11-12,41.70318581871623,-87.64286459221051,2013,Grocery Store
161420,1324702,rock n roll bp,2027538.0,grocery store,60610.0,2013-09-27,41.89325119846543,-87.63249301222938,2013,Grocery Store
161431,920365,palestine grocery  inc ,2270180.0,grocery store,60619.0,2013-08-14,41.75115673952754,-87.60612627659211,2013,Grocery Store
161438,1324791,123 concession shop,1273598.0,grocery store,60606.0,2013-11-15,41.88374821694136,-87.6366618383099,2013,Grocery Store
161470,920400,jesse s meat market  inc ,2289069.0,grocery store,60619.0,2013-09-27,41.72735810497591,-87.60474812410847,2013,Grocery Store
161522,1324709,dominick s  153 2153,41678.0,grocery store,60610.0,2013-10-03,41.90388396114024,-87.63943720155201,2013,Grocery Store
161535,1360421,golo,2278748.0,grocery store,60632.0,2013-08-21,41.828887986684606,-87.69463748675246,2013,Grocery Store
161547,1361053,baba s food mart  inc ,2284907.0,grocery store,60621.0,2013-09-19,41.76892629684455,-87.64465599703081,2013,Grocery Store
161548,1235924,quick stop,69946.0,grocery store,60640.0,2013-08-16,41.97336045726533,-87.65507658264661,2013,Grocery Store
161557,1360512,supermercado chapultepec  2,39187.0,grocery store,60632.0,2013-08-27,41.81756138490994,-87.68701507432719,2013,Grocery Store
161568,1383229,7 eleven  33956 j,2283554.0,grocery store,60622.0,2013-11-14,41.91747358536286,-87.66734009577607,2013,Grocery Store
161607,1151782,pilsen s mini mart,2104150.0,grocery store,60608.0,2013-11-05,41.85429605519712,-87.66549381668264,2013,Grocery Store
161618,1319704,michigan quick mart inc,7041.0,grocery store,60628.0,2013-08-16,41.67633869567953,-87.62060733428947,2013,Grocery Store
161635,1361344,la esquinita del sabor,1979234.0,grocery store,60622.0,2013-09-17,41.90125935952566,-87.69203326341109,2013,Grocery Store
161636,1228102,hong kong market,1892499.0,grocery store,60616.0,2013-08-16,41.84823716592543,-87.64095552751985,2013,Grocery Store
161644,1375269,european food mart,2002633.0,grocery store,60660.0,2013-11-07,41.99447477252838,-87.65773063959293,2013,Grocery Store
161660,1370067,carniceria y taqueria guerrero,2114978.0,grocery store,60647.0,2013-10-30,41.91550204505855,-87.70054895414253,2013,Grocery Store
161664,1296673,family dollar  6083,1472867.0,grocery store,60653.0,2013-11-06,41.8142270728725,-87.60652337440737,2013,Grocery Store
161681,1228143,ashland convenience   liquor,1937167.0,grocery store,60609.0,2013-09-06,41.80522165129052,-87.66502581300477,2013,Grocery Store
161685,1166384,7 eleven  26825,13199.0,grocery store,60618.0,2013-08-28,41.95037026681032,-87.7080669684227,2013,Grocery Store
161691,1329491,ammo baba meat market,2041768.0,grocery store,60659.0,2013-09-03,41.99753842013221,-87.70709044435436,2013,Grocery Store
161701,1343510,herbal life,2277462.0,grocery store,60623.0,2013-10-15,41.84030863035164,-87.73310705898443,2013,Grocery Store
161710,1369580,joe s food mart,2050002.0,grocery store,60628.0,2013-10-09,41.70637118320408,-87.64296345555924,2013,Grocery Store
161717,1329474,marathon,76794.0,grocery store,60659.0,2013-08-26,41.99059321365038,-87.6921619626574,2013,Grocery Store
161743,1324781,7 eleven   36881a,2289889.0,grocery store,60606.0,2013-11-12,41.88525719405359,-87.63376979601067,2013,Grocery Store
161748,1343453,super 7 food   liquor,2283435.0,grocery store,60623.0,2013-09-13,41.86443509650306,-87.70546338183142,2013,Grocery Store
161756,1319749,king supermarket  inc,2254295.0,grocery store,60653.0,2013-09-09,41.82034950030901,-87.61651410947175,2013,Grocery Store
161767,1151683,belli s,2279461.0,grocery store,60608.0,2013-10-04,41.85783164572629,-87.6571634171914,2013,Grocery Store
161768,1369681,afc sushi   dominick s  1703,1680254.0,grocery store,60611.0,2013-10-15,41.891689839806666,-87.62044413482636,2013,Grocery Store
161786,1369984,tamazula  grocery inc ,2004216.0,grocery store,60647.0,2013-10-25,41.91494584241689,-87.68966296727474,2013,Grocery Store
161790,1360672,winston s sausage  inc ,1493363.0,grocery store,60629.0,2013-09-04,41.7783476790774,-87.73990608038208,2013,Grocery Store
161808,1360882,7 eleven  33067h,2278542.0,grocery store,60630.0,2013-09-12,41.97693688769671,-87.76907431197014,2013,Grocery Store
161823,1345664,rise n roll bakery,2003956.0,grocery store,60603.0,2013-11-15,41.88095082939631,-87.63100546948652,2013,Grocery Store
161830,1166431,sanabel grocery   bakery,2009055.0,grocery bakery,60618.0,2013-09-30,41.95798340247807,-87.70799591514717,2013,Grocery Store
161831,1343557,la azteca mini market inc ,1926415.0,grocery store,60623.0,2013-11-14,41.842403950499424,-87.71855052411769,2013,Grocery Store
161845,1329488,la capannina coffee,44842.0,grocery store,60634.0,2013-08-29,41.945016727435416,-87.81622748384773,2013,Grocery Store
161848,920367,avalon eat shop,8682.0,grocery store,60619.0,2013-08-15,41.744151621286,-87.59945491758985,2013,Grocery Store
161874,1389235,bristol liquors inc,26821.0,grocery store,60641.0,2013-11-12,41.938586958959895,-87.75703789735589,2013,Grocery Store
161900,1151662,mariano s,2271472.0,grocery store,60616.0,2013-09-24,41.85962967731282,-87.63012489927696,2013,Grocery Store
161923,1166383,convenience store,1998125.0,grocery store,60618.0,2013-08-28,41.93973175303287,-87.71266537793763,2013,Grocery Store
161928,1375215,s   s food   deli,2293499.0,grocery store,60628.0,2013-11-05,41.70727358161855,-87.62358592336454,2013,Grocery Store
161930,1092572,catering  chocolate,1772682.0,rest grocery,60614.0,2013-08-23,41.91328261283502,-87.63492437583446,2013,Grocery Store
161967,1072533,the neighborhood store,47617.0,grocery store,60620.0,2013-09-06,41.74278773369506,-87.65338425075423,2013,Grocery Store
161983,1236051,uptown service station inc,13277.0,grocery store,60640.0,2013-10-22,41.97151644092107,-87.65988563623768,2013,Grocery Store
161984,1188744,el rodeo inc,1679441.0,grocery store,60639.0,2013-10-03,41.92396900487679,-87.77371421196557,2013,Grocery Store
161992,1319808,53rd street mini mart,2288869.0,grocery store,60615.0,2013-10-04,41.79940096015173,-87.59191139391835,2013,Grocery Store
161999,1319709,saveway food,1594450.0,grocery store,60653.0,2013-08-19,41.81648632466728,-87.61919683141062,2013,Grocery Store
162003,1370205,sunrise fresh market 2,1816485.0,grocery store,60647.0,2013-11-05,41.93057214825129,-87.71009991550633,2013,Grocery Store
162022,1319794,bronzeville convenience,2289054.0,grocery store,60653.0,2013-09-27,41.809398169618895,-87.62275731970227,2013,Grocery Store
162033,1360457,el mercado barato inc ,2120915.0,grocery store,60647.0,2013-08-22,41.93137063973293,-87.71141818329198,2013,Grocery Store
162037,1072512,vincennes food,1595681.0,grocery store,60620.0,2013-08-26,41.750889068612274,-87.63429910703262,2013,Grocery Store
162038,1106870,dream dinners,2284915.0,grocery store,60618.0,2013-09-23,41.93964099167092,-87.68180523903925,2013,Grocery Store
162041,1166376,t   m inc,60179.0,grocery store,60618.0,2013-08-23,41.94652197114158,-87.7077580799833,2013,Grocery Store
162067,1099272,azur meat market,1801636.0,grocery store,60625.0,2013-11-13,41.96846702189827,-87.69322013455337,2013,Grocery Store
162081,1343562,unique discount stores  inc,2069635.0,grocery store,60644.0,2013-11-15,41.88019235442935,-87.76056475660084,2013,Grocery Store
162085,1375481,mz food   more,2129740.0,grocery store,60619.0,2013-11-15,41.75829331503205,-87.61535410873262,2013,Grocery Store
162101,1188714,honey baked ham co,4427.0,grocery store,60618.0,2013-09-19,41.9394690604149,-87.70349609623281,2013,Grocery Store
162102,1199107,the market place foodstore,10794.0,grocery store,60614.0,2013-09-24,41.93274395710293,-87.64221884518899,2013,Grocery Store
162108,1151637,supermercado el guero no  8,20973.0,grocery store,60608.0,2013-09-18,41.85202569181507,-87.67841224334326,2013,Grocery Store
162118,1389240,lisa s food market,2189307.0,grocery store,60641.0,2013-11-14,41.93442035594334,-87.72719900544665,2013,Grocery Store
162141,1151783,supermercado gonzalez,2055584.0,grocery store,60608.0,2013-11-05,41.85313078075328,-87.6806497818038,2013,Grocery Store
162146,1389212,cvs pharmacy  5795,1545021.0,grocery store,60618.0,2013-10-16,41.94645156351348,-87.71316830471574,2013,Grocery Store
162178,1319772,walgreens  2923,18549.0,grocery store,60637.0,2013-09-18,41.77929760923632,-87.61574987538572,2013,Grocery Store
162184,1369240,fresh grocery  inc,2284901.0,grocery store,60628.0,2013-09-26,41.68927882135494,-87.62115618968048,2013,Grocery Store
162185,1369301,dominick s   113 1113,41633.0,grocery store,60646.0,2013-09-27,41.99598528606219,-87.78763711707086,2013,Grocery Store
162191,1370158,fernandez store,37179.0,grocery store,60632.0,2013-11-04,41.81571005119633,-87.69081814480167,2013,Grocery Store
162211,1360414,piatto pronto,1841223.0,grocery store,60660.0,2013-08-21,41.98426104455851,-87.66907287679672,2013,Grocery Store
162214,1370124,cardenas produce,86612.0,grocery store,60628.0,2013-10-31,41.68925755749308,-87.60848842768043,2013,Grocery Store
162226,1166370,family dollar   3952,1047189.0,grocery store,60641.0,2013-08-20,41.95351350739875,-87.74840850880908,2013,Grocery Store
162228,1072557,sunrise to sunset food mart  inc,2068988.0,grocery store,60636.0,2013-09-17,41.77387125030423,-87.68364377802502,2013,Grocery Store
162232,920394,m   a food  inc ,2196184.0,grocery store,60619.0,2013-09-16,41.75144735742037,-87.60040011791487,2013,Grocery Store
162236,1092582,7 eleven  24606,12892.0,grocery store,60614.0,2013-08-28,41.92897165071963,-87.65390175680133,2013,Grocery Store
162246,1369787,ciales poultry meats   fish,6876.0,grocery store,60647.0,2013-10-18,41.9175641969242,-87.68171694459953,2013,Grocery Store
162257,1296524,baba dollar plus market,2279592.0,grocery store,60649.0,2013-08-19,41.76249139991999,-87.57636751973416,2013,Grocery Store
162258,1072556,walgreens  5089,2279067.0,grocery store,60636.0,2013-09-17,41.764330122272014,-87.68308687863185,2013,Grocery Store
162261,1367387,central park foods inc,13813.0,grocery store,60651.0,2013-11-12,41.90247367378174,-87.71681746529526,2013,Grocery Store
162280,1166382,j and p finer foods,1567.0,grocery store,60618.0,2013-08-28,41.9609885935381,-87.71564631629732,2013,Grocery Store
162282,1115104,gateway news stands,2088648.0,grocery store,60601.0,2013-10-28,41.886567370886944,-87.62438467059714,2013,Grocery Store
162287,1099183,three sisters deli,8386.0,grocery store,60659.0,2013-09-11,41.99763165741008,-87.70185016462082,2013,Grocery Store
162289,1296545,200 liquors,48663.0,grocery store,60653.0,2013-08-27,41.8094238941323,-87.62095180199994,2013,Grocery Store
162295,1369751,rio valley market  2,1196305.0,grocery store,60629.0,2013-10-17,41.77881857710797,-87.70590357548997,2013,Grocery Store
162296,1099153,genes sausage shop at deli meyer,1922145.0,grocery store,60625.0,2013-08-22,41.96775365745214,-87.68817171608093,2013,Grocery Store
162313,1099161,food and liquor express,2269474.0,grocery store,60625.0,2013-08-27,41.968644613011605,-87.69828568537154,2013,Grocery Store
162326,1228133,stewart liquors inc,7208.0,grocery store,60621.0,2013-09-03,41.7581900395508,-87.63434463773741,2013,Grocery Store
162331,1319710,best choice oriental grocery  inc ,1802852.0,grocery store,60616.0,2013-08-19,41.84905549563665,-87.63178333329273,2013,Grocery Store
162332,1228269,chicago food market inc,19708.0,grocery store,60616.0,2013-10-30,41.85159571994642,-87.6318369065422,2013,Grocery Store
162346,1329523,geo   nottoli   son  inc ,30146.0,grocery store,60634.0,2013-09-19,41.93800478269964,-87.81865422492125,2013,Grocery Store
162358,1236084,bangkok video   grocery inc,58047.0,grocery store,60640.0,2013-11-07,41.96582746653935,-87.66670355627426,2013,Grocery Store
162378,1324778,walgreens  2432,18531.0,grocery store,60606.0,2013-11-08,41.87949547248324,-87.63382966060512,2013,Grocery Store
162396,1360610,hyde park bp am pm,1767630.0,grocery store,60615.0,2013-08-30,41.80145655246098,-87.58774186215581,2013,Grocery Store
162405,1151550,m   d grocery store,1991046.0,grocery store,60608.0,2013-08-16,41.83808191145939,-87.65178087872175,2013,Grocery Store
162419,1286318,a s o  food market  inc ,2152893.0,grocery store,60612.0,2013-09-26,41.8811600061328,-87.69893042924681,2013,Grocery Store
162427,1369572,city grocery inc ,1422515.0,grocery store,60628.0,2013-10-09,41.69562197236637,-87.64262661766566,2013,Grocery Store
162433,1099256,amy s candy bar,2088586.0,grocery store,60625.0,2013-10-29,41.96709943030305,-87.67928634668787,2013,Grocery Store
162442,1188746,nelly s food mart corp ,1802804.0,grocery restaurant,60639.0,2013-10-03,41.91540434827496,-87.72880463333307,2013,Grocery Store
162457,1329585,montrose bp,2027627.0,grocery store,60634.0,2013-10-29,41.96033349762381,-87.78640909762449,2013,Grocery Store
162483,1151805,family dollar store  7050,1695111.0,grocery store,60652.0,2013-11-14,41.74154463439204,-87.72180566243782,2013,Grocery Store
162485,1106865,pj s pantry,1515326.0,grocery store,60613.0,2013-09-20,41.9537740641164,-87.64806067621346,2013,Grocery Store
162510,1361281,mango liquors,2252897.0,grocery store,60622.0,2013-08-22,41.90839818421591,-87.68731819750221,2013,Grocery Store
162514,1343481,dona maris,24874.0,grocery store,60647.0,2013-09-30,41.924434563962016,-87.72173921765217,2013,Grocery Store
162517,1345535,fannie may candies,1875011.0,grocery store,60603.0,2013-09-11,41.87959326359286,-87.62950101220805,2013,Grocery Store
162532,1155162,baltimore food   liquor,1446831.0,grocery store,60633.0,2013-10-25,41.652964611693584,-87.547298652826,2013,Grocery Store
162552,1151688,sunshine food mart ,1574179.0,grocery store,60636.0,2013-10-07,41.76880097321221,-87.65427671389479,2013,Grocery Store
162558,1343501,strack   van til,1798602.0,grocery store,60647.0,2013-10-07,41.92948927399519,-87.68368782489382,2013,Grocery Store
162572,1367281,family dollar store  6618,1547031.0,grocery store,60624.0,2013-09-23,41.88053599680486,-87.73244354885557,2013,Grocery Store
162577,1166375,imperial shell,1937832.0,grocery store,60618.0,2013-08-21,41.9609132153612,-87.68881742016944,2013,Grocery Store
162583,1174631,7 eleven   33723b,2099109.0,grocery store,60661.0,2013-11-07,41.88328561813559,-87.64174676077212,2013,Grocery Store
162599,1305418,fair share fine food,1334504.0,grocery store,60638.0,2013-09-16,41.77776866841226,-87.78233689461797,2013,Grocery Store
162614,1369989,la loma,49880.0,grocery store,60639.0,2013-10-25,41.92703609309985,-87.7561061829788,2013,Grocery Store
162619,1106974,newleaf natural grocery inc,1356130.0,grocery store,60626.0,2013-11-14,42.00128578331998,-87.66319202639765,2013,Grocery Store
162630,1099268,a z things,2293704.0,grocery store,60618.0,2013-11-04,41.95423825147382,-87.70787781706284,2013,Grocery Store
162651,1358220,las gemelas fruit market,2283141.0,grocery store,60647.0,2013-09-04,41.93137063973293,-87.71141818329198,2013,Grocery Store
162655,1115083,bockwinkels,1491357.0,grocery store,60601.0,2013-10-18,41.8863394160112,-87.62083614995649,2013,Grocery Store
162660,1319851,fathis dollar store,2037612.0,grocery store,60637.0,2013-10-23,41.78917398251256,-87.61989129248225,2013,Grocery Store
162675,1296538,7447 pantry,2279500.0,grocery store,60649.0,2013-08-26,41.761305471393655,-87.55770551531141,2013,Grocery Store
162705,1151704,rockwell mini mart  inc,2078871.0,grocery store,60632.0,2013-10-10,41.82187729803985,-87.6898539395397,2013,Grocery Store
162709,1072549,family dollar   5392,1337574.0,grocery store,60620.0,2013-09-13,41.736044089543576,-87.65340424179776,2013,Grocery Store
162715,1236029,thrifty food,1045545.0,grocery store,60640.0,2013-10-10,41.965557700702384,-87.65355927902117,2013,Grocery Store
162716,1360544,we serve food mart inc ,2271745.0,grocery store,60628.0,2013-08-28,41.69620076046872,-87.64235277732084,2013,Grocery Store
162721,1361019,shop wise food,133440.0,grocery store,60628.0,2013-09-18,41.70717395149417,-87.6314024214215,2013,Grocery Store
162727,1387244,west haven market   grill,2093508.0,grocery store,60612.0,2013-11-07,41.88319447242824,-87.68046649021605,2013,Grocery Store
